$GPRMC,081341,A,5203.2266,N,00116.3331,E,000.0,000.0,080507,002.7,W*64
$PGRMT,GPS 25-HVS VER 2.23 ,P,P,R,R,P,,39,R*07
$GPGGA,081341,5203.2266,N,00116.3331,E,1,06,1.6,34.5,M,46.9,M,,*75
$GPGSA,A,3,01,,09,11,14,,19,,22,,,,2.6,1.6,2.1*37
$GPGSV,3,1,10,01,34,130,41,03,09,155,,09,03,003,33,11,76,271,43*7B
$GPGSV,3,2,10,14,38,070,39,17,15,314,31,19,36,158,43,20,41,223,*7E
$GPGSV,3,3,10,22,11,053,41,28,26,280,,,,,,,,,*7F
$GPRMC,081342,A,5203.2266,N,00116.3331,E,000.0,000.0,080507,002.7,W*67
$GPGGA,081342,5203.2266,N,00116.3331,E,1,06,1.6,34.5,M,46.9,M,,*76
$GPGSA,A,3,01,,09,11,14,,19,,22,,,,2.6,1.6,2.1*37
$GPGSV,3,1,10,01,34,130,42,03,09,155,,09,03,003,33,11,76,271,43*78
$GPGSV,3,2,10,14,38,070,39,17,15,314,31,19,36,158,43,20,41,223,*7E
$GPGSV,3,3,10,22,11,053,40,28,26,280,,,,,,,,,*7E
$GPRMC,081343,A,5203.2266,N,00116.3333,E,000.0,000.0,080507,002.7,W*64
$GPGGA,081343,5203.2266,N,00116.3333,E,1,06,1.6,34.7,M,46.9,M,,*77
$GPGSA,A,3,01,,09,11,14,,19,,22,,,,2.6,1.6,2.1*37
$GPGSV,3,1,10,01,34,130,41,03,09,155,,09,03,003,33,11,76,271,43*7B
$GPGSV,3,2,10,14,38,070,39,17,15,314,31,19,36,158,43,20,41,223,*7E
$GPGSV,3,3,10,22,11,053,40,28,26,280,,,,,,,,,*7E
$GPRMC,081344,A,5203.2266,N,00116.3333,E,000.0,000.0,080507,002.7,W*63
$GPGGA,081344,5203.2266,N,00116.3333,E,1,06,1.6,34.6,M,46.9,M,,*71
$GPGSA,A,3,01,,09,11,14,,19,,22,,,,2.6,1.6,2.1*37
$GPGSV,3,1,10,01,34,130,41,03,09,155,,09,03,003,33,11,76,271,43*7B
$GPGSV,3,2,10,14,38,070,39,17,15,314,31,19,36,158,43,20,41,223,*7E
$GPGSV,3,3,10,22,11,053,40,28,26,280,,,,,,,,,*7E
$GPRMC,081345,A,5203.2266,N,00116.3333,E,000.0,000.0,080507,002.7,W*62
$GPGGA,081345,5203.2266,N,00116.3333,E,1,06,1.6,34.5,M,46.9,M,,*73
$GPGSA,A,3,01,,09,11,14,,19,,22,,,,2.6,1.6,2.1*37
$GPGSV,3,1,10,01,34,130,41,03,09,155,,09,03,003,33,11,76,271,43*7B
$GPGSV,3,2,10,14,38,070,39,17,15,314,31,19,36,158,43,20,41,223,*7E
$GPGSV,3,3,10,22,11,053,40,28,26,280,,,,,,,,,*7E
$GPRMC,081346,A,5203.2266,N,00116.3334,E,000.0,000.0,080507,002.7,W*66
$GPGGA,081346,5203.2266,N,00116.3334,E,1,06,1.6,34.5,M,46.9,M,,*77
$GPGSA,A,3,01,,09,11,14,,19,,22,,,,2.6,1.6,2.1*37
$GPGSV,3,1,10,01,34,130,41,03,09,155,,09,03,003,34,11,76,271,43*7C
$GPGSV,3,2,10,14,38,070,39,17,15,314,31,19,36,158,43,20,41,223,*7E
$GPGSV,3,3,10,22,11,053,40,28,26,280,,,,,,,,,*7E
$GPRMC,081347,A,5203.2267,N,00116.3334,E,000.0,000.0,080507,002.7,W*66
$GPGGA,081347,5203.2267,N,00116.3334,E,1,06,1.6,34.3,M,46.9,M,,*71
$GPGSA,A,3,01,,09,11,14,,19,,22,,,,2.6,1.6,2.1*37
$GPGSV,3,1,10,01,34,130,41,03,09,155,,09,03,003,34,11,76,271,43*7C
$GPGSV,3,2,10,14,38,070,39,17,15,314,30,19,36,158,43,20,41,223,*7F
$GPGSV,3,3,10,22,11,053,40,28,26,280,,,,,,,,,*7E
$GPRMC,081348,A,5203.2267,N,00116.3334,E,000.0,000.0,080507,002.7,W*69
$GPGGA,081348,5203.2267,N,00116.3334,E,1,06,1.5,34.2,M,46.9,M,,*7C
$GPGSA,A,3,01,,09,11,14,,19,,22,,,,2.5,1.5,2.0*36
$GPGSV,3,1,10,01,34,130,41,03,09,155,,09,03,003,33,11,76,271,43*7B
$GPGSV,3,2,10,14,38,070,39,17,15,314,30,19,36,158,43,20,41,223,*7F
$GPGSV,3,3,10,22,11,053,40,28,26,280,,,,,,,,,*7E
$GPRMC,081349,A,5203.2266,N,00116.3334,E,000.0,000.0,080507,002.7,W*69
$GPGGA,081349,5203.2266,N,00116.3334,E,1,06,1.6,34.0,M,46.9,M,,*7D
$GPGSA,A,3,01,,09,11,14,,19,,22,,,,2.6,1.6,2.1*37
$GPGSV,3,1,10,01,34,130,41,03,09,155,,09,03,003,34,11,76,271,43*7C
$GPGSV,3,2,10,14,38,070,39,17,15,314,30,19,36,158,43,20,41,223,*7F
$GPGSV,3,3,10,22,11,053,40,28,26,280,,,,,,,,,*7E
$GPRMC,081350,A,5203.2266,N,00116.3334,E,000.0,000.0,080507,002.7,W*61
$GPGGA,081350,5203.2266,N,00116.3334,E,1,06,1.5,33.9,M,46.9,M,,*78
$GPGSA,A,3,01,,09,11,14,,19,,22,,,,2.5,1.5,2.0*36
$GPGSV,3,1,10,01,34,130,41,03,09,155,,09,03,003,34,11,76,271,43*7C
$GPGSV,3,2,10,14,38,070,39,17,15,314,30,19,36,158,43,20,41,223,*7F
$GPGSV,3,3,10,22,11,053,39,28,26,280,,,,,,,,,*70
$GPRMC,081351,A,5203.2266,N,00116.3333,E,000.0,000.0,080507,002.7,W*67
$GPGGA,081351,5203.2266,N,00116.3333,E,1,06,1.5,33.8,M,46.9,M,,*7F
$GPGSA,A,3,01,,09,11,14,,19,,22,,,,2.5,1.5,2.0*36
$GPGSV,3,1,10,01,34,130,41,03,09,155,,09,03,003,35,11,76,271,43*7D
$GPGSV,3,2,10,14,38,070,39,17,15,314,30,19,36,158,43,20,41,223,*7F
$GPGSV,3,3,10,22,11,053,40,28,26,280,,,,,,,,,*7E
$GPRMC,081352,A,5203.2266,N,00116.3333,E,000.0,000.0,080507,002.7,W*64
$GPGGA,081352,5203.2266,N,00116.3333,E,1,06,1.5,33.6,M,46.9,M,,*72
$GPGSA,A,3,01,,09,11,14,,19,,22,,,,2.5,1.5,2.0*36
$GPGSV,3,1,10,01,34,130,41,03,09,155,,09,03,003,35,11,76,271,43*7D
$GPGSV,3,2,10,14,38,070,39,17,15,314,31,19,36,158,43,20,41,223,*7E
$GPGSV,3,3,10,22,11,053,40,28,26,280,,,,,,,,,*7E
$GPRMC,081353,A,5203.2266,N,00116.3333,E,000.0,000.0,080507,002.7,W*65
$GPGGA,081353,5203.2266,N,00116.3333,E,1,06,1.5,33.4,M,46.9,M,,*71
$GPGSA,A,3,01,,09,11,14,,19,,22,,,,2.5,1.5,2.0*36
$GPGSV,3,1,10,01,34,130,41,03,09,155,,09,03,003,35,11,76,271,43*7D
$GPGSV,3,2,10,14,38,070,39,17,15,314,31,19,36,158,43,20,41,223,*7E
$GPGSV,3,3,10,22,11,053,40,28,26,280,,,,,,,,,*7E
$GPRMC,081354,A,5203.2265,N,00116.3333,E,000.0,000.0,080507,002.7,W*61
$GPGGA,081354,5203.2265,N,00116.3333,E,1,06,1.5,33.3,M,46.9,M,,*72
$GPGSA,A,3,01,,09,11,14,,19,,22,,,,2.5,1.5,2.0*36
$GPGSV,3,1,10,01,34,130,41,03,09,155,,09,03,003,35,11,76,271,43*7D
$GPGSV,3,2,10,14,38,070,39,17,15,314,31,19,36,158,43,20,41,223,*7E
$GPGSV,3,3,10,22,11,053,39,28,26,280,,,,,,,,,*70
$GPRMC,081355,A,5203.2265,N,00116.3333,E,000.0,000.0,080507,002.7,W*60
$GPGGA,081355,5203.2265,N,00116.3333,E,1,06,1.5,33.2,M,46.9,M,,*72
$GPGSA,A,3,01,,09,11,14,,19,,22,,,,2.5,1.5,2.0*36
$GPGSV,3,1,10,01,34,130,41,03,09,155,,09,03,003,36,11,76,271,43*7E
$GPGSV,3,2,10,14,38,070,39,17,15,314,31,19,36,158,43,20,41,223,*7E
$GPGSV,3,3,10,22,11,053,39,28,26,280,,,,,,,,,*70
$GPRMC,081356,A,5203.2265,N,00116.3333,E,000.0,000.0,080507,002.7,W*63
$GPGGA,081356,5203.2265,N,00116.3333,E,1,06,1.6,33.1,M,46.9,M,,*71
$GPGSA,A,3,01,,09,11,14,,19,,22,,,,2.6,1.6,2.1*37
$GPGSV,3,1,10,01,34,130,41,03,09,155,,09,03,003,36,11,76,271,43*7E
$GPGSV,3,2,10,14,38,070,40,17,15,314,31,19,36,158,43,20,41,223,*70
$GPGSV,3,3,10,22,11,053,40,28,26,280,,,,,,,,,*7E
$GPRMC,081357,A,5203.2264,N,00116.3333,E,000.0,000.0,080507,002.7,W*63
$GPGGA,081357,5203.2264,N,00116.3333,E,1,06,1.5,33.0,M,46.9,M,,*73
$GPGSA,A,3,01,,09,11,14,,19,,22,,,,2.5,1.5,2.0*36
$GPGSV,3,1,10,01,34,130,41,03,09,155,,09,03,003,36,11,76,271,43*7E
$GPGSV,3,2,10,14,38,070,40,17,15,314,31,19,36,158,43,20,41,223,*70
$GPGSV,3,3,10,22,11,053,40,28,26,280,,,,,,,,,*7E
$GPRMC,081358,A,5203.2264,N,00116.3333,E,000.0,000.0,080507,002.7,W*6C
$GPGGA,081358,5203.2264,N,00116.3333,E,1,06,1.5,32.8,M,46.9,M,,*75
$GPGSA,A,3,01,,09,11,14,,19,,22,,,,2.5,1.5,2.0*36
$GPGSV,3,1,10,01,34,130,41,03,09,155,,09,03,003,36,11,76,271,43*7E
$GPGSV,3,2,10,14,38,070,40,17,15,314,31,19,36,158,43,20,41,223,*70
$GPGSV,3,3,10,22,11,053,40,28,26,280,,,,,,,,,*7E
$GPRMC,081359,A,5203.2264,N,00116.3333,E,000.0,000.0,080507,002.7,W*6D
$GPGGA,081359,5203.2264,N,00116.3333,E,1,06,1.5,32.6,M,46.9,M,,*7A
$GPGSA,A,3,01,,09,11,14,,19,,22,,,,2.5,1.5,2.0*36
$GPGSV,3,1,10,01,34,130,41,03,09,155,,09,03,003,36,11,76,271,43*7E
$GPGSV,3,2,10,14,38,070,40,17,15,314,31,19,36,158,43,20,41,223,*70
$GPGSV,3,3,10,22,11,053,40,28,26,280,,,,,,,,,*7E
$GPRMC,081400,A,5203.2263,N,00116.3332,E,000.0,000.0,080507,002.7,W*60
$GPGGA,081400,5203.2263,N,00116.3332,E,1,06,1.5,32.4,M,46.9,M,,*75
$GPGSA,A,3,01,,09,11,14,,19,,22,,,,2.5,1.5,2.0*36
$GPGSV,3,1,10,01,34,130,41,03,09,155,,09,03,003,36,11,76,271,43*7E
$GPGSV,3,2,10,14,38,070,40,17,15,314,31,19,36,158,42,20,41,223,*71
$GPGSV,3,3,10,22,11,053,40,28,26,280,,,,,,,,,*7E
$GPRMC,081401,A,5203.2263,N,00116.3332,E,000.0,000.0,080507,002.7,W*61
$GPGGA,081401,5203.2263,N,00116.3332,E,1,06,1.5,32.3,M,46.9,M,,*73
$GPGSA,A,3,01,,09,11,14,,19,,22,,,,2.5,1.5,2.0*36
$GPGSV,3,1,10,01,34,130,41,03,09,155,,09,03,003,36,11,76,271,43*7E
$GPGSV,3,2,10,14,38,070,39,17,15,314,31,19,36,158,42,20,41,223,*7F
$GPGSV,3,3,10,22,11,053,40,28,26,279,,,,,,,,,*78
$GPRMC,081402,A,5203.2263,N,00116.3332,E,000.0,000.0,080507,002.7,W*62
$GPGGA,081402,5203.2263,N,00116.3332,E,1,06,1.5,32.2,M,46.9,M,,*71
$GPGSA,A,3,01,,09,11,14,,19,,22,,,,2.5,1.5,2.0*36
$GPGSV,3,1,10,01,34,130,41,03,09,155,,09,03,003,37,11,76,271,43*7F
$GPGSV,3,2,10,14,38,070,39,17,15,314,31,19,36,158,42,20,41,223,*7F
$GPGSV,3,3,10,22,11,053,40,28,26,279,,,,,,,,,*78
$GPRMC,081403,A,5203.2262,N,00116.3332,E,000.0,000.0,080507,002.7,W*62
$GPGGA,081403,5203.2262,N,00116.3332,E,1,06,1.5,32.1,M,46.9,M,,*72
$GPGSA,A,3,01,,09,11,14,,19,,22,,,,2.5,1.5,2.0*36
$GPGSV,3,1,10,01,34,130,41,03,09,155,,09,03,003,37,11,76,271,43*7F
$GPGSV,3,2,10,14,38,070,39,17,15,314,31,19,36,158,42,20,41,223,*7F
$GPGSV,3,3,10,22,11,053,40,28,26,279,,,,,,,,,*78
$GPRMC,081404,A,5203.2262,N,00116.3332,E,000.0,000.0,080507,002.7,W*65
$GPGGA,081404,5203.2262,N,00116.3332,E,1,06,1.5,32.0,M,46.9,M,,*74
$GPGSA,A,3,01,,09,11,14,,19,,22,,,,2.5,1.5,2.0*36
$GPGSV,3,1,10,01,34,130,41,03,09,155,,09,03,003,37,11,76,271,43*7F
$GPGSV,3,2,10,14,38,070,39,17,15,314,31,19,36,158,42,20,41,223,*7F
$GPGSV,3,3,10,22,11,053,40,28,26,279,,,,,,,,,*78
$GPRMC,081405,A,5203.2262,N,00116.3332,E,000.0,000.0,080507,002.7,W*64
$GPGGA,081405,5203.2262,N,00116.3332,E,1,06,1.5,31.9,M,46.9,M,,*7F
$GPGSA,A,3,01,,09,11,14,,19,,22,,,,2.5,1.5,2.0*36
$GPGSV,3,1,10,01,34,130,41,03,09,155,,09,03,003,37,11,76,271,43*7F
$GPGSV,3,2,10,14,38,070,39,17,15,314,31,19,36,158,42,20,41,223,*7F
$GPGSV,3,3,10,22,11,053,40,28,26,279,,,,,,,,,*78
$GPRMC,081406,A,5203.2261,N,00116.3333,E,000.0,000.0,080507,002.7,W*65
$GPGGA,081406,5203.2261,N,00116.3333,E,1,06,1.5,31.9,M,46.9,M,,*7E
$GPGSA,A,3,01,,09,11,14,,19,,22,,,,2.5,1.5,2.0*36
$GPGSV,3,1,10,01,34,130,41,03,09,155,,09,03,003,37,11,76,271,43*7F
$GPGSV,3,2,10,14,38,070,39,17,15,314,31,19,36,158,42,20,41,223,*7F
$GPGSV,3,3,10,22,11,053,40,28,26,279,,,,,,,,,*78
$GPRMC,081407,A,5203.2261,N,00116.3333,E,000.0,000.0,080507,002.7,W*64
$GPGGA,081407,5203.2261,N,00116.3333,E,1,06,1.5,31.9,M,46.9,M,,*7F
$GPGSA,A,3,01,,09,11,14,,19,,22,,,,2.5,1.5,1.9*3C
$GPGSV,3,1,10,01,34,130,41,03,09,155,,09,03,003,37,11,76,271,43*7F
$GPGSV,3,2,10,14,38,070,39,17,15,314,31,19,36,158,42,20,41,223,*7F
$GPGSV,3,3,10,22,11,053,40,28,26,279,,,,,,,,,*78
$GPRMC,081408,A,5203.2261,N,00116.3333,E,000.0,000.0,080507,002.7,W*6B
$GPGGA,081408,5203.2261,N,00116.3333,E,1,06,1.5,31.9,M,46.9,M,,*70
$GPGSA,A,3,01,,09,11,14,,19,,22,,,,2.5,1.5,1.9*3C
$GPGSV,3,1,10,01,34,130,41,03,09,155,,09,03,003,37,11,76,271,43*7F
$GPGSV,3,2,10,14,38,070,39,17,15,314,31,19,36,158,42,20,41,223,*7F
$GPGSV,3,3,10,22,11,053,40,28,26,279,,,,,,,,,*78
$GPRMC,081409,A,5203.2260,N,00116.3334,E,000.0,000.0,080507,002.7,W*6C
$GPGGA,081409,5203.2260,N,00116.3334,E,1,06,1.5,32.0,M,46.9,M,,*7D
$GPGSA,A,3,01,,09,11,14,,19,,22,,,,2.5,1.5,1.9*3C
$GPGSV,3,1,10,01,34,130,41,03,09,155,,09,03,003,37,11,76,271,43*7F
$GPGSV,3,2,10,14,38,070,39,17,15,314,31,19,36,158,42,20,41,223,*7F
$GPGSV,3,3,10,22,11,053,40,28,26,279,,,,,,,,,*78
$GPRMC,180304,A,5203.2171,N,00116.3378,E,000.0,000.0,080507,002.7,W*6D
$GPGGA,180304,5203.2171,N,00116.3378,E,1,05,2.4,31.6,M,46.9,M,,*78
$GPGSA,A,3,,,,17,,19,,26,28,29,,,2.5,2.4,1.1*38
$GPGSV,3,1,10,08,20,069,38,09,26,255,,10,17,182,,17,10,118,37*7C
$GPGSV,3,2,10,18,24,313,35,19,02,009,36,21,06,278,36,26,88,254,49*70
$GPGSV,3,3,10,28,49,071,48,29,78,133,47,,,,,,,,*73
$GPRMC,180305,A,5203.2175,N,00116.3373,E,000.0,000.0,080507,002.7,W*63
$GPGGA,180305,5203.2175,N,00116.3373,E,1,05,2.4,31.3,M,46.9,M,,*73
$GPGSA,A,3,08,,,17,,19,,26,28,29,,,2.5,2.4,1.1*30
$GPGSV,3,1,10,08,20,069,38,09,26,255,,10,17,182,,17,10,118,37*7C
$GPGSV,3,2,10,18,24,313,35,19,02,009,36,21,06,278,36,26,88,254,49*70
$GPGSV,3,3,10,28,49,071,48,29,78,133,47,,,,,,,,*73
$GPRMC,180306,A,5203.2179,N,00116.3370,E,000.0,000.0,080507,002.7,W*6F
$GPGGA,180306,5203.2179,N,00116.3370,E,1,06,2.0,31.1,M,46.9,M,,*7A
$GPGSA,A,3,08,,,17,,19,,26,28,29,,,2.5,2.0,1.1*34
$GPGSV,3,1,10,08,20,069,38,09,26,255,,10,17,182,,17,10,118,37*7C
$GPGSV,3,2,10,18,24,313,35,19,02,009,36,21,06,278,36,26,88,254,49*70
$GPGSV,3,3,10,28,49,071,48,29,78,133,46,,,,,,,,*72
$GPRMC,180307,A,5203.2182,N,00116.3366,E,000.0,000.0,080507,002.7,W*6D
$GPGGA,180307,5203.2182,N,00116.3366,E,1,06,2.0,30.8,M,46.9,M,,*70
$GPGSA,A,3,08,,,17,,19,,26,28,29,,,2.5,2.0,1.1*34
$GPGSV,3,1,10,08,20,069,38,09,26,255,,10,17,182,,17,10,118,37*7C
$GPGSV,3,2,10,18,24,313,35,19,02,009,37,21,06,278,37,26,88,254,49*70
$GPGSV,3,3,10,28,49,071,48,29,78,133,47,,,,,,,,*73
$GPRMC,180308,A,5203.2186,N,00116.3362,E,000.0,000.0,080507,002.7,W*62
$GPGGA,180308,5203.2186,N,00116.3362,E,1,06,2.0,30.5,M,46.9,M,,*72
$GPGSA,A,3,08,,,17,,19,,26,28,29,,,2.5,2.0,1.1*34
$GPGSV,3,1,10,08,20,069,38,09,26,255,,10,17,182,,17,10,118,37*7C
$GPGSV,3,2,10,18,24,313,35,19,02,009,37,21,06,278,37,26,88,254,49*70
$GPGSV,3,3,10,28,49,071,48,29,78,133,47,,,,,,,,*73
$GPRMC,180309,A,5203.2189,N,00116.3359,E,000.0,000.0,080507,002.7,W*64
$GPGGA,180309,5203.2189,N,00116.3359,E,1,06,2.0,30.3,M,46.9,M,,*72
$GPGSA,A,3,08,,,17,,19,,26,28,29,,,2.5,2.0,1.1*34
$GPGSV,3,1,10,08,20,069,38,09,26,255,,10,17,182,,17,10,118,37*7C
$GPGSV,3,2,10,18,24,313,34,19,02,009,37,21,06,278,37,26,88,224,49*76
$GPGSV,3,3,10,28,49,071,48,29,78,133,47,,,,,,,,*73
$GPRMC,180310,A,5203.2193,N,00116.3356,E,000.0,000.0,080507,002.7,W*68
$GPGGA,180310,5203.2193,N,00116.3356,E,1,06,2.0,30.0,M,46.9,M,,*7D
$GPGSA,A,3,08,,,17,,19,,26,28,29,,,2.5,2.0,1.1*34
$GPGSV,3,1,10,08,20,069,38,09,26,255,,10,17,182,,17,10,118,37*7C
$GPGSV,3,2,10,18,24,313,35,19,02,009,37,21,06,278,37,26,88,224,49*77
$GPGSV,3,3,10,28,49,071,48,29,78,133,47,,,,,,,,*73
$GPRMC,180311,A,5203.2196,N,00116.3353,E,000.0,000.0,080507,002.7,W*69
$GPGGA,180311,5203.2196,N,00116.3353,E,1,06,2.0,29.8,M,46.9,M,,*7C
$GPGSA,A,3,08,,,17,,19,,26,28,29,,,2.5,2.0,1.1*34
$GPGSV,3,1,10,08,20,069,38,09,26,255,,10,17,182,,17,10,118,37*7C
$GPGSV,3,2,10,18,24,313,34,19,02,009,37,21,06,278,37,26,88,224,49*76
$GPGSV,3,3,10,28,49,071,48,29,78,133,47,,,,,,,,*73
$GPRMC,180312,A,5203.2199,N,00116.3349,E,000.0,000.0,080507,002.7,W*6E
$GPGGA,180312,5203.2199,N,00116.3349,E,1,06,2.0,29.5,M,46.9,M,,*76
$GPGSA,A,3,08,,,17,,19,,26,28,29,,,2.5,2.0,1.1*34
$GPGSV,3,1,10,08,20,069,38,09,26,255,,10,17,182,,17,10,118,37*7C
$GPGSV,3,2,10,18,24,313,34,19,02,009,37,21,06,278,37,26,88,224,49*76
$GPGSV,3,3,10,28,49,071,48,29,78,133,47,,,,,,,,*73
$GPRMC,180313,A,5203.2202,N,00116.3346,E,000.0,000.0,080507,002.7,W*61
$GPGGA,180313,5203.2202,N,00116.3346,E,1,06,2.0,29.3,M,46.9,M,,*7F
$GPGSA,A,3,08,,,17,,19,,26,28,29,,,2.5,2.0,1.1*34
$GPGSV,3,1,10,08,20,069,38,09,26,255,,10,17,182,,17,10,118,37*7C
$GPGSV,3,2,10,18,24,313,34,19,02,009,37,21,06,278,37,26,88,224,49*76
$GPGSV,3,3,10,28,49,071,48,29,78,133,47,,,,,,,,*73
$GPRMC,180314,A,5203.2204,N,00116.3342,E,000.0,000.0,080507,002.7,W*64
$GPGGA,180314,5203.2204,N,00116.3342,E,1,06,2.0,29.0,M,46.9,M,,*79
$GPGSA,A,3,08,,,17,,19,,26,28,29,,,2.5,2.0,1.1*34
$GPGSV,3,1,10,08,20,069,38,09,26,255,,10,17,182,,17,10,118,37*7C
$GPGSV,3,2,10,18,24,313,34,19,02,009,38,21,06,278,37,26,88,224,49*79
$GPGSV,3,3,10,28,49,071,48,29,78,133,47,,,,,,,,*73
$GPRMC,180315,A,5203.2207,N,00116.3339,E,000.0,000.0,080507,002.7,W*6A
$GPGGA,180315,5203.2207,N,00116.3339,E,1,06,2.0,28.8,M,46.9,M,,*7E
$GPGSA,A,3,08,,,17,,19,,26,28,29,,,2.5,2.0,1.1*34
$GPGSV,3,1,10,08,20,069,39,09,26,255,,10,17,182,,17,10,118,37*7D
$GPGSV,3,2,10,18,24,313,34,19,02,009,38,21,06,278,36,26,88,224,49*78
$GPGSV,3,3,10,28,49,071,48,29,78,133,47,,,,,,,,*73
$GPRMC,180316,A,5203.2210,N,00116.3336,E,000.0,000.0,080507,002.7,W*60
$GPGGA,180316,5203.2210,N,00116.3336,E,1,06,2.0,28.5,M,46.9,M,,*79
$GPGSA,A,3,08,,,17,,19,,26,28,29,,,2.5,2.0,1.2*37
$GPGSV,3,1,10,08,20,069,39,09,26,255,,10,17,182,,17,10,118,37*7D
$GPGSV,3,2,10,18,24,313,34,19,02,009,38,21,06,278,36,26,88,224,49*78
$GPGSV,3,3,10,28,49,071,48,29,78,133,47,,,,,,,,*73
$GPRMC,180317,A,5203.2212,N,00116.3333,E,000.0,000.0,080507,002.7,W*66
$GPGGA,180317,5203.2212,N,00116.3333,E,1,06,2.0,28.3,M,46.9,M,,*79
$GPGSA,A,3,08,,,17,,19,,26,28,29,,,2.5,2.0,1.2*37
$GPGSV,3,1,10,08,20,069,39,09,26,255,,10,17,182,,17,10,118,37*7D
$GPGSV,3,2,10,18,24,313,34,19,02,009,38,21,06,278,36,26,88,224,49*78
$GPGSV,3,3,10,28,49,070,48,29,78,133,47,,,,,,,,*72
$GPRMC,180318,A,5203.2215,N,00116.3329,E,000.0,000.0,080507,002.7,W*65
$GPGGA,180318,5203.2215,N,00116.3329,E,1,06,2.0,28.1,M,46.9,M,,*78
$GPGSA,A,3,08,,,17,,19,,26,28,29,,,2.5,2.0,1.2*37
$GPGSV,3,1,10,08,20,069,39,09,26,255,,10,17,182,,17,10,118,37*7D
$GPGSV,3,2,10,18,24,313,34,19,02,009,38,21,06,278,36,26,88,224,49*78
$GPGSV,3,3,10,28,49,070,48,29,78,133,47,,,,,,,,*72
$GPRMC,180319,A,5203.2217,N,00116.3327,E,000.0,000.0,080507,002.7,W*68
$GPGGA,180319,5203.2217,N,00116.3327,E,1,06,2.0,27.9,M,46.9,M,,*72
$GPGSA,A,3,08,,,17,,19,,26,28,29,,,2.5,2.0,1.2*37
$GPGSV,3,1,10,08,20,069,39,09,26,255,,10,17,182,,17,10,118,37*7D
$GPGSV,3,2,10,18,24,313,34,19,02,009,38,21,06,278,37,26,88,224,49*79
$GPGSV,3,3,10,28,49,070,48,29,78,133,47,,,,,,,,*72
$GPRMC,180320,A,5203.2219,N,00116.3323,E,000.0,000.0,080507,002.7,W*68
$GPGGA,180320,5203.2219,N,00116.3323,E,1,06,2.0,27.7,M,46.9,M,,*7C
$GPGSA,A,3,08,,,17,,19,,26,28,29,,,2.5,2.0,1.2*37
$GPGSV,3,1,10,08,20,069,39,09,26,255,,10,17,182,,17,10,118,37*7D
$GPGSV,3,2,10,18,24,313,34,19,02,009,38,21,06,278,37,26,88,224,49*79
$GPGSV,3,3,10,28,49,070,48,29,78,133,47,,,,,,,,*72
$GPRMC,180321,A,5203.2221,N,00116.3320,E,000.0,000.0,080507,002.7,W*61
$PGRMT,GPS 25-HVS VER 2.23 ,P,P,R,R,P,,30,R*0E
$GPGGA,180321,5203.2221,N,00116.3320,E,1,06,2.0,27.5,M,46.9,M,,*77
$GPGSA,A,3,08,,,17,,19,,26,28,29,,,2.5,2.0,1.2*37
$GPGSV,3,1,10,08,20,069,39,09,26,255,,10,17,182,,17,10,118,37*7D
$GPGSV,3,2,10,18,24,313,35,19,02,009,38,21,06,278,36,26,88,224,49*79
$GPGSV,3,3,10,28,49,070,48,29,77,134,47,,,,,,,,*7A
$GPRMC,180322,A,5203.2223,N,00116.3317,E,000.0,000.0,080507,002.7,W*64
$GPGGA,180322,5203.2223,N,00116.3317,E,1,06,2.0,27.3,M,46.9,M,,*74
$GPGSA,A,3,08,,,17,,19,,26,28,29,,,2.5,2.0,1.2*37
$GPGSV,3,1,10,08,20,069,39,09,26,255,,10,17,182,,17,10,118,37*7D
$GPGSV,3,2,10,18,24,313,35,19,02,009,38,21,06,278,37,26,88,224,49*78
$GPGSV,3,3,10,28,49,070,48,29,77,134,47,,,,,,,,*7A
$GPRMC,180323,A,5203.2225,N,00116.3314,E,000.0,000.0,080507,002.7,W*60
$GPGGA,180323,5203.2225,N,00116.3314,E,1,06,2.0,27.1,M,46.9,M,,*72
$GPGSA,A,3,08,,,17,,19,,26,28,29,,,2.5,2.0,1.2*37
$GPGSV,3,1,10,08,20,069,40,09,26,255,,10,17,182,,17,10,118,37*73
$GPGSV,3,2,10,18,24,313,35,19,02,009,37,21,06,278,37,26,88,224,49*77
$GPGSV,3,3,10,28,49,070,48,29,77,134,47,,,,,,,,*7A
$GPRMC,180324,A,5203.2226,N,00116.3311,E,000.0,000.0,080507,002.7,W*61
$GPGGA,180324,5203.2226,N,00116.3311,E,1,06,2.0,26.9,M,46.9,M,,*7A
$GPGSA,A,3,08,,,17,,19,,26,28,29,,,2.5,2.0,1.2*37
$GPGSV,3,1,10,08,20,069,40,09,26,255,,10,17,182,,17,10,118,37*73
$GPGSV,3,2,10,18,24,313,35,19,02,009,37,21,06,278,37,26,88,224,49*77
$GPGSV,3,3,10,28,49,070,48,29,77,134,47,,,,,,,,*7A
$GPRMC,180325,A,5203.2228,N,00116.3308,E,000.0,000.0,080507,002.7,W*66
$GPGGA,180325,5203.2228,N,00116.3308,E,1,06,2.0,26.7,M,46.9,M,,*73
$GPGSA,A,3,08,,,17,,19,,26,28,29,,,2.5,2.0,1.2*37
$GPGSV,3,1,10,08,20,069,40,09,26,255,,10,17,182,,17,10,118,37*73
$GPGSV,3,2,10,18,24,313,35,19,02,009,37,21,06,278,37,26,88,224,49*77
$GPGSV,3,3,10,28,49,070,48,29,77,134,47,,,,,,,,*7A
$GPRMC,180326,A,5203.2229,N,00116.3305,E,000.0,000.0,080507,002.7,W*69
$GPGGA,180326,5203.2229,N,00116.3305,E,1,06,2.3,26.5,M,46.9,M,,*7D
$GPGSA,A,3,08,,,17,,19,,26,28,29,,,3.0,2.3,1.6*34
$GPGSV,3,1,10,08,20,069,40,09,26,255,,10,17,182,,17,10,118,37*73
$GPGSV,3,2,10,18,24,313,35,19,02,009,37,21,06,278,37,26,88,224,49*77
$GPGSV,3,3,10,28,49,070,48,29,77,134,47,,,,,,,,*7A
$GPRMC,180327,A,5203.2231,N,00116.3302,E,000.0,000.0,080507,002.7,W*66
$GPGGA,180327,5203.2231,N,00116.3302,E,1,06,2.0,26.3,M,46.9,M,,*77
$GPGSA,A,3,08,,,17,,19,,26,28,29,,,2.5,2.0,1.6*33
$GPGSV,3,1,10,08,20,069,39,09,26,255,,10,17,182,,17,10,118,36*7C
$GPGSV,3,2,10,18,24,313,34,19,02,009,36,21,06,278,37,26,88,224,49*77
$GPGSV,3,3,10,28,49,070,48,29,77,134,47,,,,,,,,*7A
$GPRMC,180328,A,5203.2232,N,00116.3299,E,000.0,000.0,080507,002.7,W*69
$GPGGA,180328,5203.2232,N,00116.3299,E,1,06,2.0,26.0,M,46.9,M,,*7B
$GPGSA,A,3,08,,,17,,19,,26,28,29,,,2.5,2.0,1.6*33
$GPGSV,3,1,10,08,20,069,39,09,26,255,,10,17,182,,17,10,118,37*7D
$GPGSV,3,2,10,18,24,313,34,19,02,009,36,21,06,278,37,26,88,224,49*77
$GPGSV,3,3,10,28,49,070,48,29,77,134,47,,,,,,,,*7A
$GPRMC,180329,A,5203.2234,N,00116.3297,E,000.0,000.0,080507,002.7,W*60
$GPGGA,180329,5203.2234,N,00116.3297,E,1,06,2.0,25.9,M,46.9,M,,*78
$GPGSA,A,3,08,,,17,,19,,26,28,29,,,2.5,2.0,1.6*33
$GPGSV,3,1,10,08,20,069,39,09,26,255,,10,17,182,,17,10,118,37*7D
$GPGSV,3,2,10,18,24,313,34,19,02,009,36,21,06,278,37,26,88,224,49*77
$GPGSV,3,3,10,28,49,070,48,29,77,134,47,,,,,,,,*7A
$GPRMC,180330,A,5203.2235,N,00116.3294,E,000.0,000.0,080507,002.7,W*6A
$GPGGA,180330,5203.2235,N,00116.3294,E,1,06,2.0,25.8,M,46.9,M,,*73
$GPGSA,A,3,08,,,17,,19,,26,28,29,,,2.5,2.0,1.6*33
$GPGSV,3,1,10,08,20,069,39,09,26,255,,10,17,182,,17,10,118,37*7D
$GPGSV,3,2,10,18,24,313,34,19,02,009,36,21,06,278,37,26,88,224,49*77
$GPGSV,3,3,10,28,49,070,48,29,77,134,47,,,,,,,,*7A
$GPRMC,180331,A,5203.2236,N,00116.3291,E,000.0,000.0,080507,002.7,W*6D
$GPGGA,180331,5203.2236,N,00116.3291,E,1,06,2.0,25.6,M,46.9,M,,*7A
$GPGSA,A,3,08,,,17,,19,,26,28,29,,,2.5,2.0,1.6*33
$GPGSV,3,1,10,08,20,069,39,09,26,255,,10,17,182,,17,10,118,37*7D
$GPGSV,3,2,10,18,24,313,33,19,02,009,36,21,06,278,37,26,88,224,49*70
$GPGSV,3,3,10,28,49,070,48,29,77,134,47,,,,,,,,*7A
$GPRMC,180332,A,5203.2238,N,00116.3288,E,000.0,000.0,080507,002.7,W*68
$GPGGA,180332,5203.2238,N,00116.3288,E,1,06,2.0,25.5,M,46.9,M,,*7C
$GPGSA,A,3,08,,,17,,19,,26,28,29,,,2.5,2.0,1.6*33
$GPGSV,3,1,10,08,20,069,39,09,26,255,,10,17,182,,17,10,118,37*7D
$GPGSV,3,2,10,18,24,313,33,19,02,009,37,21,06,278,37,26,88,224,49*71
$GPGSV,3,3,10,28,49,070,48,29,77,134,47,,,,,,,,*7A
$GPRMC,180333,A,5203.2239,N,00116.3286,E,000.0,000.0,080507,002.7,W*66
$GPGGA,180333,5203.2239,N,00116.3286,E,1,06,2.0,25.3,M,46.9,M,,*74
$GPGSA,A,3,08,,,17,,19,,26,28,29,,,2.5,2.0,1.6*33
$GPGSV,3,1,10,08,20,069,39,09,26,255,,10,17,182,,17,10,118,37*7D
$GPGSV,3,2,10,18,24,313,33,19,02,009,37,21,06,278,37,26,88,224,49*71
$GPGSV,3,3,10,28,49,070,48,29,77,134,47,,,,,,,,*7A
$GPRMC,180334,A,5203.2241,N,00116.3283,E,000.0,000.0,080507,002.7,W*6B
$GPGGA,180334,5203.2241,N,00116.3283,E,1,06,2.0,25.3,M,46.9,M,,*79
$GPGSA,A,3,08,,,17,,19,,26,28,29,,,2.5,2.0,1.6*33
$GPGSV,3,1,10,08,20,069,40,09,26,255,,10,17,182,,17,10,118,37*73
$GPGSV,3,2,10,18,24,313,33,19,02,009,37,21,06,278,37,26,88,224,49*71
$GPGSV,3,3,10,28,49,070,48,29,77,134,47,,,,,,,,*7A
$GPRMC,180335,A,5203.2243,N,00116.3281,E,000.0,000.0,080507,002.7,W*6A
$GPGGA,180335,5203.2243,N,00116.3281,E,1,06,2.0,25.2,M,46.9,M,,*79
$GPGSA,A,3,08,,,17,,19,,26,28,29,,,2.5,2.0,1.6*33
$GPGSV,3,1,10,08,20,069,39,09,26,255,,10,17,182,,17,10,118,37*7D
$GPGSV,3,2,10,18,24,313,33,19,02,009,37,21,06,278,37,26,88,224,49*71
$GPGSV,3,3,10,28,49,070,48,29,77,134,47,,,,,,,,*7A
$GPRMC,180336,A,5203.2244,N,00116.3278,E,000.0,000.0,080507,002.7,W*68
$GPGGA,180336,5203.2244,N,00116.3278,E,1,06,2.0,25.2,M,46.9,M,,*7B
$GPGSA,A,3,08,,,17,,19,,26,28,29,,,2.5,2.0,1.6*33
$GPGSV,3,1,10,08,20,069,40,09,26,255,,10,17,182,,17,10,118,37*73
$GPGSV,3,2,10,18,24,313,33,19,02,009,37,21,06,278,36,26,88,224,49*70
$GPGSV,3,3,10,28,49,070,48,29,77,134,47,,,,,,,,*7A
$GPRMC,180337,A,5203.2246,N,00116.3276,E,000.0,000.0,080507,002.7,W*65
$GPGGA,180337,5203.2246,N,00116.3276,E,1,06,2.0,25.1,M,46.9,M,,*75
$GPGSA,A,3,08,,,17,,19,,26,28,29,,,2.5,2.0,1.6*33
$GPGSV,3,1,10,08,20,069,40,09,26,255,,10,17,182,,17,10,118,38*7C
$GPGSV,3,2,10,18,24,313,33,19,02,009,37,21,06,278,36,26,88,224,49*70
$GPGSV,3,3,10,28,49,070,48,29,77,134,47,,,,,,,,*7A
$GPRMC,180338,A,5203.2248,N,00116.3273,E,000.0,000.0,080507,002.7,W*61
$GPGGA,180338,5203.2248,N,00116.3273,E,1,06,2.0,25.1,M,46.9,M,,*71
$GPGSA,A,3,08,,,17,,19,,26,28,29,,,2.5,2.0,1.6*33
$GPGSV,3,1,10,08,20,069,40,09,26,255,,10,17,182,,17,10,118,37*73
$GPGSV,3,2,10,18,24,313,32,19,02,009,37,21,06,278,36,26,88,224,49*71
$GPGSV,3,3,10,28,49,070,48,29,77,134,47,,,,,,,,*7A
$GPRMC,180339,A,5203.2249,N,00116.3271,E,000.0,000.0,080507,002.7,W*63
$GPGGA,180339,5203.2249,N,00116.3271,E,1,06,2.0,25.1,M,46.9,M,,*73
$GPGSA,A,3,08,,,17,,19,,26,28,29,,,2.5,2.0,1.6*33
$GPGSV,3,1,10,08,20,069,40,09,26,255,,10,17,182,,17,10,118,37*73
$GPGSV,3,2,10,18,24,313,33,19,02,009,37,21,06,278,36,26,88,224,49*70
$GPGSV,3,3,10,28,49,070,48,29,77,134,47,,,,,,,,*7A
$GPRMC,180340,A,5203.2251,N,00116.3269,E,000.0,000.0,080507,002.7,W*6D
$GPGGA,180340,5203.2251,N,00116.3269,E,1,06,2.0,25.1,M,46.9,M,,*7D
$GPGSA,A,3,08,,,17,,19,,26,28,29,,,2.5,2.0,1.6*33
$GPGSV,3,1,10,08,20,069,39,09,26,255,,10,17,182,,17,10,118,37*7D
$GPGSV,3,2,10,18,24,313,33,19,02,009,37,21,06,278,36,26,88,215,49*72
$GPGSV,3,3,10,28,49,070,48,29,77,134,47,,,,,,,,*7A
$GPRMC,180341,A,5203.2252,N,00116.3267,E,000.0,000.0,080507,002.7,W*61
$GPGGA,180341,5203.2252,N,00116.3267,E,1,06,2.0,25.0,M,46.9,M,,*70
$GPGSA,A,3,08,,,17,,19,,26,28,29,,,2.5,2.0,1.6*33
$GPGSV,3,1,10,08,20,069,39,09,26,255,,10,17,182,,17,10,118,37*7D
$GPGSV,3,2,10,18,24,313,33,19,02,009,37,21,06,278,36,26,88,215,49*72
$GPGSV,3,3,10,28,49,070,48,29,77,134,47,,,,,,,,*7A
$GPRMC,180342,A,5203.2253,N,00116.3264,E,000.0,000.0,080507,002.7,W*60
$GPGGA,180342,5203.2253,N,00116.3264,E,1,06,2.0,24.9,M,46.9,M,,*79
$GPGSA,A,3,08,,,17,,19,,26,28,29,,,2.5,2.0,1.6*33
$GPGSV,3,1,10,08,20,069,39,09,26,255,,10,17,182,,17,10,118,37*7D
$GPGSV,3,2,10,18,24,313,33,19,02,009,37,21,06,278,36,26,88,215,49*72
$GPGSV,3,3,10,28,49,070,48,29,77,134,47,,,,,,,,*7A
$GPRMC,180343,A,5203.2255,N,00116.3262,E,000.0,000.0,080507,002.7,W*61
$GPGGA,180343,5203.2255,N,00116.3262,E,1,06,2.0,24.9,M,46.9,M,,*78
$GPGSA,A,3,08,,,17,,19,,26,28,29,,,2.5,2.0,1.6*33
$GPGSV,3,1,10,08,20,069,39,09,26,255,,10,17,182,,17,10,118,37*7D
$GPGSV,3,2,10,18,24,313,33,19,02,009,37,21,06,278,36,26,88,215,49*72
$GPGSV,3,3,10,28,49,070,48,29,77,134,47,,,,,,,,*7A
$GPRMC,180344,A,5203.2256,N,00116.3260,E,000.0,000.0,080507,002.7,W*67
$GPGGA,180344,5203.2256,N,00116.3260,E,1,06,2.0,24.8,M,46.9,M,,*7F
$GPGSA,A,3,08,,,17,,19,,26,28,29,,,2.5,2.0,1.6*33
$GPGSV,3,1,10,08,20,069,39,09,26,255,,10,17,182,,17,10,118,37*7D
$GPGSV,3,2,10,18,24,313,33,19,02,009,37,21,06,278,36,26,88,215,49*72
$GPGSV,3,3,10,28,49,070,48,29,77,134,47,,,,,,,,*7A
$GPRMC,180345,A,5203.2257,N,00116.3258,E,000.0,000.0,080507,002.7,W*6C
$GPGGA,180345,5203.2257,N,00116.3258,E,1,06,2.0,24.7,M,46.9,M,,*7B
$GPGSA,A,3,08,,,17,,19,,26,28,29,,,2.5,2.0,1.6*33
$GPGSV,3,1,10,08,20,069,39,09,26,255,,10,17,182,,17,10,118,37*7D
$GPGSV,3,2,10,18,24,313,33,19,02,009,37,21,06,278,36,26,88,215,49*72
$GPGSV,3,3,10,28,49,070,48,29,77,134,47,,,,,,,,*7A
$GPRMC,180346,A,5203.2258,N,00116.3255,E,000.0,000.0,080507,002.7,W*6D
$GPGGA,180346,5203.2258,N,00116.3255,E,1,06,2.0,24.6,M,46.9,M,,*7B
$GPGSA,A,3,08,,,17,,19,,26,28,29,,,2.5,2.0,1.6*33
$GPGSV,3,1,10,08,20,069,39,09,26,255,,10,17,182,,17,10,118,37*7D
$GPGSV,3,2,10,18,24,313,34,19,02,009,37,21,06,278,36,26,88,215,49*75
$GPGSV,3,3,10,28,49,070,48,29,77,134,47,,,,,,,,*7A
$GPRMC,180347,A,5203.2259,N,00116.3253,E,000.0,000.0,080507,002.7,W*6B
$GPGGA,180347,5203.2259,N,00116.3253,E,1,06,2.0,24.5,M,46.9,M,,*7E
$GPGSA,A,3,08,,,17,,19,,26,28,29,,,2.5,2.0,1.6*33
$GPGSV,3,1,10,08,20,069,39,09,26,255,,10,17,182,,17,10,118,37*7D
$GPGSV,3,2,10,18,24,313,34,19,02,009,38,21,06,278,36,26,88,215,49*7A
$GPGSV,3,3,10,28,49,070,48,29,77,134,47,,,,,,,,*7A
$GPRMC,180348,A,5203.2260,N,00116.3251,E,000.0,000.0,080507,002.7,W*6C
$GPGGA,180348,5203.2260,N,00116.3251,E,1,06,2.3,24.5,M,46.9,M,,*7A
$GPGSA,A,3,08,,,17,,19,,26,28,29,,,3.0,2.3,1.9*3B
$GPGSV,3,1,10,08,20,069,39,09,26,255,,10,17,182,,17,10,118,37*7D
$GPGSV,3,2,10,18,24,313,34,19,02,009,38,21,06,278,36,26,88,215,49*7A
$GPGSV,3,3,10,28,49,070,48,29,77,134,47,,,,,,,,*7A
$GPRMC,180349,A,5203.2263,N,00116.3249,E,000.0,000.0,080507,002.7,W*67
$GPGGA,180349,5203.2263,N,00116.3249,E,1,06,2.3,24.7,M,46.9,M,,*73
$GPGSA,A,3,08,,,17,,19,,26,28,29,,,3.0,2.3,1.9*3B
$GPGSV,3,1,10,08,20,069,39,09,26,255,,10,17,182,,17,10,118,36*7C
$GPGSV,3,2,10,18,24,313,34,19,02,009,38,21,06,278,36,26,88,215,49*7A
$GPGSV,3,3,10,28,49,070,48,29,77,134,47,,,,,,,,*7A
$GPRMC,180350,A,5203.2263,N,00116.3247,E,000.0,000.0,080507,002.7,W*61
$GPGGA,180350,5203.2263,N,00116.3247,E,1,06,2.3,24.5,M,46.9,M,,*77
$GPGSA,A,3,08,,,17,,19,,26,28,29,,,3.0,2.3,1.9*3B
$GPGSV,3,1,10,08,20,069,39,09,26,255,,10,17,182,,17,10,118,36*7C
$GPGSV,3,2,10,18,24,313,34,19,02,009,38,21,06,278,37,26,88,215,49*7B
$GPGSV,3,3,10,28,49,070,48,29,77,134,47,,,,,,,,*7A
$GPRMC,180351,A,5203.2263,N,00116.3246,E,000.0,000.0,080507,002.7,W*61
$GPGGA,180351,5203.2263,N,00116.3246,E,1,06,2.0,24.2,M,46.9,M,,*73
$GPGSA,A,3,08,,,17,,19,,26,28,29,,,2.5,2.0,1.6*33
$GPGSV,3,1,10,08,20,069,39,09,26,255,,10,17,182,,17,10,118,36*7C
$GPGSV,3,2,10,18,24,313,34,19,02,009,38,21,06,278,36,26,88,215,49*7A
$GPGSV,3,3,10,28,49,070,48,29,77,134,47,,,,,,,,*7A
$GPRMC,180352,A,5203.2263,N,00116.3244,E,000.0,000.0,080507,002.7,W*60
$GPGGA,180352,5203.2263,N,00116.3244,E,1,06,2.0,24.0,M,46.9,M,,*70
$GPGSA,A,3,08,,,17,,19,,26,28,29,,,2.5,2.0,1.6*33
$GPGSV,3,1,10,08,20,069,39,09,26,255,,10,17,182,,17,10,118,36*7C
$GPGSV,3,2,10,18,24,313,34,19,02,009,38,21,06,278,36,26,88,215,49*7A
$GPGSV,3,3,10,28,49,070,48,29,77,134,47,,,,,,,,*7A
$GPRMC,180353,A,5203.2263,N,00116.3246,E,000.0,000.0,080507,002.7,W*63
$GPGGA,180353,5203.2263,N,00116.3246,E,1,06,2.0,24.2,M,46.9,M,,*71
$GPGSA,A,3,08,,,17,,19,21,26,28,29,,,2.5,2.0,1.6*30
$GPGSV,3,1,10,08,20,069,39,09,26,255,,10,17,182,,17,10,118,36*7C
$GPGSV,3,2,10,18,24,313,34,19,02,009,38,21,06,278,36,26,88,215,49*7A
$GPGSV,3,3,10,28,49,070,48,29,77,134,47,,,,,,,,*7A
$GPRMC,180354,A,5203.2264,N,00116.3248,E,000.0,000.0,080507,002.7,W*6D
$GPGGA,180354,5203.2264,N,00116.3248,E,1,07,1.2,24.4,M,46.9,M,,*79
$GPGSA,A,3,08,,,17,,19,21,26,28,29,,,1.6,1.2,1.1*36
$GPGSV,3,1,10,08,20,069,39,09,26,255,,10,17,182,,17,10,118,36*7C
$GPGSV,3,2,10,18,24,313,34,19,02,009,38,21,06,278,36,26,88,215,49*7A
$GPGSV,3,3,10,28,49,070,48,29,77,134,47,,,,,,,,*7A
$GPRMC,180355,A,5203.2264,N,00116.3250,E,000.0,000.0,080507,002.7,W*65
$GPGGA,180355,5203.2264,N,00116.3250,E,1,07,1.2,24.6,M,46.9,M,,*73
$GPGSA,A,3,08,,,17,,19,21,26,28,29,,,1.6,1.2,1.1*36
$GPGSV,3,1,10,08,20,069,39,09,26,255,,10,17,182,,17,10,118,36*7C
$GPGSV,3,2,10,18,24,313,34,19,02,009,38,21,06,278,36,26,88,215,49*7A
$GPGSV,3,3,10,28,49,070,48,29,77,134,47,,,,,,,,*7A
$GPRMC,180356,A,5203.2264,N,00116.3252,E,000.0,000.0,080507,002.7,W*64
$GPGGA,180356,5203.2264,N,00116.3252,E,1,07,1.2,24.9,M,46.9,M,,*7D
$GPGSA,A,3,08,,,17,,19,21,26,28,29,,,1.6,1.2,1.1*36
$GPGSV,3,1,10,08,20,069,39,09,26,255,,10,17,182,,17,10,118,36*7C
$GPGSV,3,2,10,18,24,313,35,19,02,009,38,21,06,278,36,26,88,215,49*7B
$GPGSV,3,3,10,28,49,070,48,29,77,134,47,,,,,,,,*7A
$GPRMC,180357,A,5203.2265,N,00116.3254,E,000.0,000.0,080507,002.7,W*62
$GPGGA,180357,5203.2265,N,00116.3254,E,1,07,1.2,25.1,M,46.9,M,,*72
$GPGSA,A,3,08,,,17,,19,21,26,28,29,,,1.7,1.2,1.1*37
$GPGSV,3,1,10,08,20,069,39,09,26,255,,10,17,182,,17,10,118,36*7C
$GPGSV,3,2,10,18,24,313,35,19,02,009,38,21,06,278,36,26,88,215,49*7B
$GPGSV,3,3,10,28,49,070,48,29,77,134,47,,,,,,,,*7A
$GPRMC,180358,A,5203.2265,N,00116.3255,E,000.0,000.0,080507,002.7,W*6C
$GPGGA,180358,5203.2265,N,00116.3255,E,1,07,1.2,25.3,M,46.9,M,,*7E
$GPGSA,A,3,08,,,17,,19,21,26,28,29,,,1.6,1.2,1.1*36
$GPGSV,3,1,10,08,20,069,39,09,26,255,,10,17,182,,17,10,118,37*7D
$GPGSV,3,2,10,18,24,313,34,19,02,009,38,21,06,278,36,26,88,215,49*7A
$GPGSV,3,3,10,28,49,070,48,29,77,134,47,,,,,,,,*7A
$GPRMC,180359,A,5203.2266,N,00116.3256,E,000.0,000.0,080507,002.7,W*6D
$GPGGA,180359,5203.2266,N,00116.3256,E,1,07,1.2,25.4,M,46.9,M,,*78
$GPGSA,A,3,08,,,17,,19,21,26,28,29,,,1.7,1.2,1.1*37
$GPGSV,3,1,10,08,20,069,39,09,26,255,,10,17,182,,17,10,118,37*7D
$GPGSV,3,2,10,18,24,313,34,19,02,009,37,21,06,278,36,26,88,215,49*75
$GPGSV,3,3,10,28,49,070,48,29,77,134,47,,,,,,,,*7A
$GPRMC,180400,A,5203.2266,N,00116.3258,E,000.0,000.0,080507,002.7,W*68
$GPGGA,180400,5203.2266,N,00116.3258,E,1,07,1.2,25.6,M,46.9,M,,*7F
$GPGSA,A,3,08,,,17,,19,21,26,28,29,,,1.6,1.2,1.1*36
$GPGSV,3,1,10,08,20,069,39,09,26,255,,10,17,182,,17,10,118,37*7D
$GPGSV,3,2,10,18,24,313,34,19,02,009,37,21,06,278,36,26,88,215,49*75
$GPGSV,3,3,10,28,49,070,48,29,77,134,47,,,,,,,,*7A
$GPRMC,180401,A,5203.2267,N,00116.3260,E,000.0,000.0,080507,002.7,W*63
$GPGGA,180401,5203.2267,N,00116.3260,E,1,07,1.2,25.9,M,46.9,M,,*7B
$GPGSA,A,3,08,,,17,,19,21,26,28,29,,,1.6,1.2,1.1*36
$GPGSV,3,1,10,08,20,069,39,09,26,255,,10,17,182,,17,10,118,37*7D
$GPGSV,3,2,10,18,24,313,34,19,02,009,37,21,06,278,36,26,88,215,49*75
$GPGSV,3,3,10,28,49,070,48,29,77,134,47,,,,,,,,*7A
$GPRMC,180402,A,5203.2267,N,00116.3261,E,000.0,000.0,080507,002.7,W*61
$GPGGA,180402,5203.2267,N,00116.3261,E,1,07,1.2,26.1,M,46.9,M,,*72
$GPGSA,A,3,08,,,17,,19,21,26,28,29,,,1.6,1.2,1.1*36
$GPGSV,3,1,10,08,20,069,39,09,26,255,,10,17,182,,17,10,118,37*7D
$GPGSV,3,2,10,18,24,313,33,19,02,009,37,21,06,278,36,26,88,215,49*72
$GPGSV,3,3,10,28,49,070,48,29,77,134,47,,,,,,,,*7A
$GPRMC,180403,A,5203.2268,N,00116.3263,E,000.0,000.0,080507,002.7,W*6D
$GPGGA,180403,5203.2268,N,00116.3263,E,1,07,1.2,26.4,M,46.9,M,,*7B
$GPGSA,A,3,08,,,17,,19,21,26,28,29,,,1.6,1.2,1.1*36
$GPGSV,3,1,10,08,20,069,39,09,26,255,,10,17,182,,17,10,118,37*7D
$GPGSV,3,2,10,18,24,313,34,19,02,009,37,21,06,278,36,26,88,215,49*75
$GPGSV,3,3,10,28,49,070,48,29,77,134,47,,,,,,,,*7A
$GPRMC,180404,A,5203.2269,N,00116.3264,E,000.0,000.0,080507,002.7,W*6C
$GPGGA,180404,5203.2269,N,00116.3264,E,1,07,1.2,26.7,M,46.9,M,,*79
$GPGSA,A,3,08,,,17,,19,21,26,28,29,,,1.6,1.2,1.1*36
$GPGSV,3,1,10,08,20,069,39,09,26,255,,10,17,182,,17,10,118,37*7D
$GPGSV,3,2,10,18,24,313,34,19,02,009,37,21,06,278,36,26,88,215,49*75
$GPGSV,3,3,10,28,49,070,48,29,77,134,47,,,,,,,,*7A
$GPRMC,180405,A,5203.2270,N,00116.3266,E,000.0,000.0,080507,002.7,W*67
$GPGGA,180405,5203.2270,N,00116.3266,E,1,07,1.2,26.9,M,46.9,M,,*7C
$GPGSA,A,3,08,,,17,,19,21,26,28,29,,,1.6,1.2,1.1*36
$GPGSV,3,1,10,08,20,069,39,09,26,255,,10,17,182,,17,10,118,37*7D
$GPGSV,3,2,10,18,24,313,34,19,02,009,37,21,06,278,36,26,88,215,49*75
$GPGSV,3,3,10,28,49,070,48,29,77,134,47,,,,,,,,*7A
$GPRMC,180406,A,5203.2270,N,00116.3267,E,000.0,000.0,080507,002.7,W*65
$GPGGA,180406,5203.2270,N,00116.3267,E,1,07,1.2,27.2,M,46.9,M,,*74
$GPGSA,A,3,08,,,17,,19,21,26,28,29,,,1.6,1.2,1.1*36
$GPGSV,3,1,10,08,19,069,39,09,26,255,,10,17,182,,17,10,118,37*77
$GPGSV,3,2,10,18,24,313,34,19,02,009,37,21,06,278,37,26,88,215,49*74
$GPGSV,3,3,10,28,49,070,48,29,77,134,47,,,,,,,,*7A
$GPRMC,180407,A,5203.2271,N,00116.3268,E,000.0,000.0,080507,002.7,W*6A
$GPGGA,180407,5203.2271,N,00116.3268,E,1,07,1.2,27.5,M,46.9,M,,*7C
$GPGSA,A,3,08,,,17,,19,21,26,28,29,,,1.6,1.2,1.1*36
$GPGSV,3,1,10,08,19,069,39,09,26,255,,10,17,182,,17,10,118,37*77
$GPGSV,3,2,10,18,24,313,33,19,02,009,37,21,06,278,36,26,88,215,49*72
$GPGSV,3,3,10,28,49,070,48,29,77,134,47,,,,,,,,*7A
$GPRMC,180408,A,5203.2272,N,00116.3269,E,000.0,000.0,080507,002.7,W*67
$GPGGA,180408,5203.2272,N,00116.3269,E,1,07,1.2,27.8,M,46.9,M,,*7C
$GPGSA,A,3,08,,,17,,19,21,26,28,29,,,1.6,1.2,1.1*36
$GPGSV,3,1,10,08,19,069,39,09,26,255,,10,17,182,,17,10,118,38*78
$GPGSV,3,2,10,18,24,313,33,19,02,009,37,21,06,278,36,26,88,215,49*72
$GPGSV,3,3,10,28,49,070,48,29,77,134,47,,,,,,,,*7A
$GPRMC,180409,A,5203.2273,N,00116.3271,E,000.0,000.0,080507,002.7,W*6E
$GPGGA,180409,5203.2273,N,00116.3271,E,1,07,1.2,28.0,M,46.9,M,,*72
$GPGSA,A,3,08,,,17,,19,21,26,28,29,,,1.6,1.2,1.1*36
$GPGSV,3,1,10,08,19,069,39,09,26,255,,10,17,182,,17,10,118,38*78
$GPGSV,3,2,10,18,24,313,34,19,02,009,37,21,06,278,36,26,88,215,49*75
$GPGSV,3,3,10,28,49,070,47,29,77,134,47,,,,,,,,*75
$GPRMC,180410,A,5203.2274,N,00116.3272,E,000.0,000.0,080507,002.7,W*62
$GPGGA,180410,5203.2274,N,00116.3272,E,1,07,1.2,28.3,M,46.9,M,,*7D
$GPGSA,A,3,08,,,17,,19,21,26,28,29,,,1.6,1.2,1.1*36
$GPGSV,3,1,10,08,19,069,39,09,27,256,,10,17,182,,17,10,118,37*75
$GPGSV,3,2,10,18,24,313,34,19,02,009,37,21,06,278,36,26,88,215,49*75
$GPGSV,3,3,10,28,49,070,47,29,77,134,47,,,,,,,,*75
$GPRMC,180411,A,5203.2274,N,00116.3273,E,000.0,000.0,080507,002.7,W*62
$GPGGA,180411,5203.2274,N,00116.3273,E,1,07,1.2,28.5,M,46.9,M,,*7B
$GPGSA,A,3,08,,,17,,19,21,26,28,29,,,1.6,1.2,1.1*36
$GPGSV,3,1,10,08,19,069,39,09,27,256,,10,17,182,,17,10,118,37*75
$GPGSV,3,2,10,18,24,313,34,19,02,009,37,21,06,278,36,26,88,215,49*75
$GPGSV,3,3,10,28,49,070,47,29,77,134,47,,,,,,,,*75
$GPRMC,180412,A,5203.2275,N,00116.3274,E,000.0,000.0,080507,002.7,W*67
$GPGGA,180412,5203.2275,N,00116.3274,E,1,07,1.2,28.6,M,46.9,M,,*7D
$GPGSA,A,3,08,,,17,,19,21,26,28,29,,,1.6,1.2,1.1*36
$GPGSV,3,1,10,08,19,069,39,09,27,256,,10,17,182,,17,10,118,37*75
$GPGSV,3,2,10,18,24,313,34,19,02,009,37,21,06,278,36,26,88,215,49*75
$GPGSV,3,3,10,28,49,070,47,29,77,134,47,,,,,,,,*75
$GPRMC,180413,A,5203.2275,N,00116.3275,E,000.0,000.0,080507,002.7,W*67
$GPGGA,180413,5203.2275,N,00116.3275,E,1,07,1.2,28.8,M,46.9,M,,*73
$GPGSA,A,3,08,,,17,,19,21,26,28,29,,,1.6,1.2,1.1*36
$GPGSV,3,1,10,08,19,069,39,09,27,256,,10,17,182,,17,10,118,37*75
$GPGSV,3,2,10,18,24,313,34,19,02,009,37,21,06,278,36,26,88,215,49*75
$GPGSV,3,3,10,28,49,070,47,29,77,134,47,,,,,,,,*75
$GPRMC,180414,A,5203.2276,N,00116.3276,E,000.0,000.0,080507,002.7,W*60
$GPGGA,180414,5203.2276,N,00116.3276,E,1,07,1.2,29.0,M,46.9,M,,*7D
$GPGSA,A,3,08,,,17,,19,21,26,28,29,,,1.6,1.2,1.1*36
$GPGSV,3,1,10,08,19,069,39,09,27,256,,10,16,182,,17,10,118,37*74
$GPGSV,3,2,10,18,24,313,34,19,02,009,37,21,06,278,36,26,88,215,49*75
$GPGSV,3,3,10,28,49,070,47,29,77,134,47,,,,,,,,*75
$GPRMC,180415,A,5203.2277,N,00116.3276,E,000.0,000.0,080507,002.7,W*60
$GPGGA,180415,5203.2277,N,00116.3276,E,1,07,1.2,29.1,M,46.9,M,,*7C
$GPGSA,A,3,08,,,17,,19,21,26,28,29,,,1.6,1.2,1.1*36
$GPGSV,3,1,10,08,19,069,39,09,27,256,,10,16,182,,17,10,118,37*74
$GPGSV,3,2,10,18,24,313,34,19,02,009,37,21,06,278,36,26,88,215,49*75
$GPGSV,3,3,10,28,49,070,47,29,77,134,47,,,,,,,,*75
$GPRMC,180416,A,5203.2278,N,00116.3277,E,000.0,000.0,080507,002.7,W*6D
$GPGGA,180416,5203.2278,N,00116.3277,E,1,07,1.2,29.3,M,46.9,M,,*73
$GPGSA,A,3,08,,,17,,19,21,26,28,29,,,1.6,1.2,1.1*36
$GPGSV,3,1,10,08,19,069,38,09,27,256,,10,16,182,,17,10,118,37*75
$GPGSV,3,2,10,18,24,313,33,19,02,009,37,21,06,278,36,26,88,215,49*72
$GPGSV,3,3,10,28,49,070,47,29,77,134,47,,,,,,,,*75
$GPRMC,180417,A,5203.2278,N,00116.3275,E,000.0,000.0,080507,002.7,W*6E
$GPGGA,180417,5203.2278,N,00116.3275,E,1,07,1.2,29.0,M,46.9,M,,*73
$GPGSA,A,3,08,,,17,,19,21,26,28,29,,,1.7,1.2,1.1*37
$GPGSV,3,1,10,08,19,069,38,09,27,256,,10,16,182,,17,10,118,37*75
$GPGSV,3,2,10,18,24,313,33,19,02,009,37,21,06,278,35,26,88,215,49*71
$GPGSV,3,3,10,28,49,070,47,29,77,134,47,,,,,,,,*75
$GPRMC,180418,A,5203.2279,N,00116.3274,E,000.0,000.0,080507,002.7,W*61
$GPGGA,180418,5203.2279,N,00116.3274,E,1,07,1.2,29.0,M,46.9,M,,*7C
$GPGSA,A,3,08,,,17,,19,21,26,28,29,,,1.7,1.2,1.1*37
$GPGSV,3,1,10,08,19,069,38,09,27,256,,10,16,182,,17,10,118,37*75
$GPGSV,3,2,10,18,24,313,33,19,02,009,38,21,06,278,35,26,88,215,49*7E
$GPGSV,3,3,10,28,49,070,47,29,77,134,47,,,,,,,,*75
$GPRMC,180419,A,5203.2280,N,00116.3275,E,000.0,000.0,080507,002.7,W*67
$GPGGA,180419,5203.2280,N,00116.3275,E,1,07,1.2,29.1,M,46.9,M,,*7B
$GPGSA,A,3,08,,,17,,19,21,26,28,29,,,1.6,1.2,1.1*36
$GPGSV,3,1,10,08,19,069,38,09,27,256,,10,16,182,,17,10,118,37*75
$GPGSV,3,2,10,18,24,313,33,19,02,009,38,21,06,278,36,26,88,215,49*7D
$GPGSV,3,3,10,28,49,070,47,29,77,134,47,,,,,,,,*75
$GPRMC,180420,A,5203.2281,N,00116.3276,E,000.0,000.0,080507,002.7,W*6F
$GPGGA,180420,5203.2281,N,00116.3276,E,1,07,1.2,29.2,M,46.9,M,,*70
$GPGSA,A,3,08,,,17,,19,21,26,28,29,,,1.6,1.2,1.1*36
$GPGSV,3,1,10,08,19,069,39,09,27,256,,10,16,182,,17,10,118,37*74
$GPGSV,3,2,10,18,24,313,34,19,02,009,38,21,06,278,36,26,88,215,49*7A
$GPGSV,3,3,10,28,49,070,47,29,77,134,47,,,,,,,,*75
$GPRMC,180421,A,5203.2281,N,00116.3277,E,000.0,000.0,080507,002.7,W*6F
$PGRMT,GPS 25-HVS VER 2.23 ,P,P,R,R,P,,30,R*0E
$GPGGA,180421,5203.2281,N,00116.3277,E,1,07,1.2,29.3,M,46.9,M,,*71
$GPGSA,A,3,08,,,17,,19,21,26,28,29,,,1.6,1.2,1.1*36
$GPGSV,3,1,10,08,19,069,39,09,27,256,,10,16,182,,17,10,118,37*74
$GPGSV,3,2,10,18,24,313,34,19,02,009,38,21,06,278,36,26,88,215,49*7A
$GPGSV,3,3,10,28,49,070,47,29,77,134,47,,,,,,,,*75
$GPRMC,180422,A,5203.2282,N,00116.3279,E,000.0,000.0,080507,002.7,W*61
$GPGGA,180422,5203.2282,N,00116.3279,E,1,07,1.2,29.5,M,46.9,M,,*79
$GPGSA,A,3,08,,,17,,19,21,26,28,29,,,1.6,1.2,1.1*36
$GPGSV,3,1,10,08,19,069,39,09,27,256,,10,16,182,,17,10,118,37*74
$GPGSV,3,2,10,18,24,313,34,19,02,009,38,21,06,278,36,26,88,215,49*7A
$GPGSV,3,3,10,28,49,070,47,29,77,134,47,,,,,,,,*75
$GPRMC,180423,A,5203.2283,N,00116.3280,E,000.0,000.0,080507,002.7,W*67
$GPGGA,180423,5203.2283,N,00116.3280,E,1,07,1.3,29.6,M,46.9,M,,*7D
$GPGSA,A,3,08,,,17,,19,21,26,28,29,,,1.7,1.3,1.2*35
$GPGSV,3,1,10,08,19,069,39,09,27,256,,10,16,182,,17,10,118,36*75
$GPGSV,3,2,10,18,24,313,34,19,02,009,38,21,06,278,36,26,88,215,49*7A
$GPGSV,3,3,10,28,49,070,47,29,77,134,47,,,,,,,,*75
$GPRMC,180424,A,5203.2282,N,00116.3281,E,000.0,000.0,080507,002.7,W*60
$GPGGA,180424,5203.2282,N,00116.3281,E,1,07,1.3,29.7,M,46.9,M,,*7B
$GPGSA,A,3,08,,,17,,19,21,26,28,29,,,1.8,1.3,1.2*3A
$GPGSV,3,1,10,08,19,069,39,09,27,256,,10,16,182,,17,10,118,36*75
$GPGSV,3,2,10,18,24,313,35,19,02,009,38,21,06,278,36,26,88,215,49*7B
$GPGSV,3,3,10,28,49,070,47,29,77,134,47,,,,,,,,*75
$GPRMC,180425,A,5203.2283,N,00116.3282,E,000.0,000.0,080507,002.7,W*63
$GPGGA,180425,5203.2283,N,00116.3282,E,1,07,1.2,29.7,M,46.9,M,,*79
$GPGSA,A,3,08,,,17,,19,21,26,28,29,,,1.6,1.2,1.1*36
$GPGSV,3,1,10,08,19,069,39,09,27,256,,10,16,182,,17,10,118,36*75
$GPGSV,3,2,10,18,24,313,35,19,02,009,38,21,06,278,36,26,88,215,48*7A
$GPGSV,3,3,10,28,49,070,47,29,77,134,47,,,,,,,,*75
$GPRMC,180426,A,5203.2283,N,00116.3283,E,000.0,000.0,080507,002.7,W*61
$GPGGA,180426,5203.2283,N,00116.3283,E,1,07,1.2,29.9,M,46.9,M,,*75
$GPGSA,A,3,08,,,17,,19,21,26,28,29,,,1.6,1.2,1.1*36
$GPGSV,3,1,10,08,19,069,39,09,27,256,,10,16,182,,17,10,118,36*75
$GPGSV,3,2,10,18,24,313,34,19,02,009,38,21,06,278,36,26,88,215,49*7A
$GPGSV,3,3,10,28,49,070,47,29,77,134,47,,,,,,,,*75
$GPRMC,180427,A,5203.2283,N,00116.3284,E,000.0,000.0,080507,002.7,W*67
$GPGGA,180427,5203.2283,N,00116.3284,E,1,07,1.2,30.0,M,46.9,M,,*72
$GPGSA,A,3,08,,,17,,19,21,26,28,29,,,1.6,1.2,1.1*36
$GPGSV,3,1,10,08,19,069,39,09,27,256,,10,16,182,,17,10,118,36*75
$GPGSV,3,2,10,18,24,313,34,19,02,009,38,21,06,278,36,26,88,215,49*7A
$GPGSV,3,3,10,28,49,070,47,29,77,134,47,,,,,,,,*75
$GPRMC,180428,A,5203.2282,N,00116.3284,E,000.0,000.0,080507,002.7,W*69
$GPGGA,180428,5203.2282,N,00116.3284,E,1,07,1.2,30.0,M,46.9,M,,*7C
$GPGSA,A,3,08,,,17,,19,21,26,28,29,,,1.7,1.2,1.1*37
$GPGSV,3,1,10,08,19,069,40,09,27,256,,10,16,182,,17,10,118,36*7B
$GPGSV,3,2,10,18,24,313,34,19,02,009,38,21,06,278,37,26,88,215,49*7B
$GPGSV,3,3,10,28,49,070,47,29,77,134,47,,,,,,,,*75
$GPRMC,180429,A,5203.2281,N,00116.3285,E,000.0,000.0,080507,002.7,W*6A
$GPGGA,180429,5203.2281,N,00116.3285,E,1,07,1.2,30.1,M,46.9,M,,*7E
$GPGSA,A,3,08,,,17,,19,21,26,28,29,,,1.7,1.2,1.1*37
$GPGSV,3,1,10,08,19,069,39,09,27,256,,10,16,182,,17,10,118,36*75
$GPGSV,3,2,10,18,24,313,34,19,02,009,38,21,06,278,37,26,88,215,49*7B
$GPGSV,3,3,10,28,49,070,47,29,77,134,47,,,,,,,,*75
$GPRMC,180430,A,5203.2281,N,00116.3282,E,000.0,000.0,080507,002.7,W*65
$GPGGA,180430,5203.2281,N,00116.3282,E,1,07,1.2,29.7,M,46.9,M,,*7F
$GPGSA,A,3,08,,,17,,19,21,26,28,29,,,1.7,1.2,1.1*37
$GPGSV,3,1,10,08,19,069,40,09,27,256,,10,16,182,,17,10,118,36*7B
$GPGSV,3,2,10,18,24,313,34,19,02,009,37,21,06,278,36,26,88,215,49*75
$GPGSV,3,3,10,28,49,070,47,29,77,134,47,,,,,,,,*75
$GPRMC,180431,A,5203.2280,N,00116.3281,E,000.0,000.0,080507,002.7,W*66
$GPGGA,180431,5203.2280,N,00116.3281,E,1,07,1.2,29.7,M,46.9,M,,*7C
$GPGSA,A,3,08,,,17,,19,21,26,28,29,,,1.7,1.2,1.1*37
$GPGSV,3,1,10,08,19,069,40,09,27,256,,10,16,182,,17,10,118,36*7B
$GPGSV,3,2,10,18,24,313,35,19,02,009,37,21,06,278,36,26,88,215,49*74
$GPGSV,3,3,10,28,49,070,47,29,77,134,47,,,,,,,,*75
$GPRMC,180432,A,5203.2280,N,00116.3282,E,000.0,000.0,080507,002.7,W*66
$GPGGA,180432,5203.2280,N,00116.3282,E,1,07,1.3,29.8,M,46.9,M,,*72
$GPGSA,A,3,08,,,17,,19,21,26,28,29,,,1.8,1.3,1.2*3A
$GPGSV,3,1,10,08,19,069,39,09,27,256,,10,16,182,,17,10,118,36*75
$GPGSV,3,2,10,18,24,313,35,19,02,009,37,21,06,278,37,26,88,215,49*75
$GPGSV,3,3,10,28,49,070,47,29,77,134,47,,,,,,,,*75
$GPRMC,180433,A,5203.2280,N,00116.3283,E,000.0,000.0,080507,002.7,W*66
$GPGGA,180433,5203.2280,N,00116.3283,E,1,07,1.2,29.9,M,46.9,M,,*72
$GPGSA,A,3,08,,,17,,19,21,26,28,29,,,1.6,1.2,1.1*36
$GPGSV,3,1,10,08,19,069,39,09,27,256,,10,16,182,,17,10,118,36*75
$GPGSV,3,2,10,18,24,313,35,19,02,009,37,21,06,278,37,26,88,215,49*75
$GPGSV,3,3,10,28,49,070,47,29,77,134,47,,,,,,,,*75
$GPRMC,180434,A,5203.2280,N,00116.3284,E,000.0,000.0,080507,002.7,W*66
$GPGGA,180434,5203.2280,N,00116.3284,E,1,07,1.3,30.0,M,46.9,M,,*72
$GPGSA,A,3,08,,,17,,19,21,26,28,29,,,1.7,1.3,1.2*35
$GPGSV,3,1,10,08,19,069,39,09,27,256,,10,16,182,,17,10,118,36*75
$GPGSV,3,2,10,18,24,313,35,19,02,009,37,21,06,278,37,26,88,215,49*75
$GPGSV,3,3,10,28,49,070,47,29,77,134,47,,,,,,,,*75
$GPRMC,180435,A,5203.2280,N,00116.3285,E,000.0,000.0,080507,002.7,W*66
$GPGGA,180435,5203.2280,N,00116.3285,E,1,07,1.6,30.0,M,46.9,M,,*77
$GPGSA,A,3,08,,,17,,19,21,26,28,29,,,2.2,1.6,1.5*31
$GPGSV,3,1,10,08,19,069,39,09,27,256,,10,16,182,,17,10,118,36*75
$GPGSV,3,2,10,18,24,313,35,19,02,009,37,21,06,278,37,26,88,215,49*75
$GPGSV,3,3,10,28,49,070,47,29,77,134,47,,,,,,,,*75
$GPRMC,180436,A,5203.2279,N,00116.3286,E,000.0,000.0,080507,002.7,W*60
$GPGGA,180436,5203.2279,N,00116.3286,E,1,07,1.7,30.0,M,46.9,M,,*70
$GPGSA,A,3,08,,,17,,19,21,26,28,29,,,2.3,1.7,1.5*31
$GPGSV,3,1,10,08,19,069,40,09,27,256,,10,16,182,,17,10,118,36*7B
$GPGSV,3,2,10,18,24,313,35,19,02,009,37,21,06,278,37,26,88,215,49*75
$GPGSV,3,3,10,28,49,070,47,29,77,134,47,,,,,,,,*75
$GPRMC,180437,A,5203.2278,N,00116.3287,E,000.0,000.0,080507,002.7,W*61
$GPGGA,180437,5203.2278,N,00116.3287,E,1,07,1.7,30.0,M,46.9,M,,*71
$GPGSA,A,3,08,,,17,,19,21,26,28,29,,,2.3,1.7,1.6*32
$GPGSV,3,1,10,08,19,069,40,09,27,256,,10,16,182,,17,10,118,35*78
$GPGSV,3,2,10,18,24,313,34,19,02,009,37,21,06,278,37,26,88,215,49*74
$GPGSV,3,3,10,28,49,070,47,29,77,134,47,,,,,,,,*75
$GPRMC,180438,A,5203.2277,N,00116.3289,E,000.0,000.0,080507,002.7,W*6F
$GPGGA,180438,5203.2277,N,00116.3289,E,1,07,1.7,30.0,M,46.9,M,,*7F
$GPGSA,A,3,08,,,17,,19,21,26,28,29,,,2.3,1.7,1.6*32
$GPGSV,3,1,10,08,19,069,40,09,27,256,,10,16,182,,17,10,118,35*78
$GPGSV,3,2,10,18,24,313,34,19,02,009,37,21,06,278,37,26,88,215,49*74
$GPGSV,3,3,10,28,49,070,47,29,77,134,47,,,,,,,,*75
$GPRMC,180439,A,5203.2276,N,00116.3290,E,000.0,000.0,080507,002.7,W*67
$GPGGA,180439,5203.2276,N,00116.3290,E,1,07,1.2,30.0,M,46.9,M,,*72
$GPGSA,A,3,08,,,17,,19,21,26,28,29,,,1.6,1.2,1.1*36
$GPGSV,3,1,10,08,19,069,40,09,27,256,,10,16,182,,17,10,118,35*78
$GPGSV,3,2,10,18,24,313,35,19,02,009,36,21,06,278,37,26,88,215,49*74
$GPGSV,3,3,10,28,49,070,47,29,77,134,47,,,,,,,,*75
$GPRMC,180440,A,5203.2275,N,00116.3291,E,000.0,000.0,080507,002.7,W*6B
$GPGGA,180440,5203.2275,N,00116.3291,E,1,07,1.2,30.0,M,46.9,M,,*7E
$GPGSA,A,3,08,,,17,,19,21,26,28,29,,,1.6,1.2,1.1*36
$GPGSV,3,1,10,08,19,069,40,09,27,256,,10,16,182,,17,10,118,36*7B
$GPGSV,3,2,10,18,24,313,35,19,02,009,36,21,06,278,37,26,88,215,49*74
$GPGSV,3,3,10,28,49,069,47,29,77,134,47,,,,,,,,*7D
$GPRMC,180441,A,5203.2275,N,00116.3292,E,000.0,000.0,080507,002.7,W*69
$GPGGA,180441,5203.2275,N,00116.3292,E,1,07,1.2,30.0,M,46.9,M,,*7C
$GPGSA,A,3,08,,,17,,19,21,26,28,29,,,1.6,1.2,1.1*36
$GPGSV,3,1,10,08,19,069,39,09,27,256,,10,16,182,,17,10,118,36*75
$GPGSV,3,2,10,18,24,313,35,19,02,009,36,21,06,278,37,26,88,215,49*74
$GPGSV,3,3,10,28,49,069,47,29,77,134,47,,,,,,,,*7D
$GPRMC,180442,A,5203.2275,N,00116.3293,E,000.0,000.0,080507,002.7,W*6B
$GPGGA,180442,5203.2275,N,00116.3293,E,1,07,1.2,30.1,M,46.9,M,,*7F
$GPGSA,A,3,08,,,17,,19,21,26,28,29,,,1.6,1.2,1.1*36
$GPGSV,3,1,10,08,19,069,40,09,27,256,,10,16,182,,17,11,118,36*7A
$GPGSV,3,2,10,18,24,313,35,19,02,009,37,21,06,278,37,26,88,215,49*75
$GPGSV,3,3,10,28,49,069,47,29,77,134,47,,,,,,,,*7D
$GPRMC,180443,A,5203.2274,N,00116.3294,E,000.0,000.0,080507,002.7,W*6C
$GPGGA,180443,5203.2274,N,00116.3294,E,1,07,1.2,30.0,M,46.9,M,,*79
$GPGSA,A,3,08,,,17,,19,21,26,28,29,,,1.6,1.2,1.1*36
$GPGSV,3,1,10,08,19,069,39,09,27,256,,10,16,182,,17,11,118,36*74
$GPGSV,3,2,10,18,24,313,35,19,02,009,37,21,06,278,37,26,88,215,49*75
$GPGSV,3,3,10,28,49,069,47,29,77,134,47,,,,,,,,*7D
$GPRMC,180444,A,5203.2275,N,00116.3294,E,000.0,000.0,080507,002.7,W*6A
$GPGGA,180444,5203.2275,N,00116.3294,E,1,07,1.3,30.2,M,46.9,M,,*7C
$GPGSA,A,3,08,,,17,,19,21,26,28,29,,,1.7,1.3,1.2*35
$GPGSV,3,1,10,08,19,069,40,09,27,256,,10,16,182,,17,11,118,36*7A
$GPGSV,3,2,10,18,24,313,35,19,02,009,37,21,06,278,37,26,88,215,49*75
$GPGSV,3,3,10,28,49,069,47,29,77,134,47,,,,,,,,*7D
$GPRMC,180445,A,5203.2275,N,00116.3294,E,000.0,000.0,080507,002.7,W*6B
$GPGGA,180445,5203.2275,N,00116.3294,E,1,07,1.3,30.2,M,46.9,M,,*7D
$GPGSA,A,3,08,,,17,,19,21,26,28,29,,,1.8,1.3,1.2*3A
$GPGSV,3,1,10,08,19,069,40,09,27,256,,10,16,182,,17,11,118,36*7A
$GPGSV,3,2,10,18,24,313,34,19,02,009,37,21,06,278,37,26,88,215,49*74
$GPGSV,3,3,10,28,49,069,47,29,77,134,47,,,,,,,,*7D
$GPRMC,180446,A,5203.2275,N,00116.3295,E,000.0,000.0,080507,002.7,W*69
$GPGGA,180446,5203.2275,N,00116.3295,E,1,07,1.2,30.2,M,46.9,M,,*7E
$GPGSA,A,3,08,,,17,,19,21,26,28,29,,,1.6,1.2,1.1*36
$GPGSV,3,1,10,08,19,069,40,09,27,256,,10,16,182,,17,11,118,36*7A
$GPGSV,3,2,10,18,25,312,34,19,02,009,37,21,06,278,37,26,88,215,49*74
$GPGSV,3,3,10,28,49,069,47,29,77,134,47,,,,,,,,*7D
$GPRMC,180447,A,5203.2276,N,00116.3296,E,000.0,000.0,080507,002.7,W*68
$GPGGA,180447,5203.2276,N,00116.3296,E,1,07,1.2,30.3,M,46.9,M,,*7E
$GPGSA,A,3,08,,,17,,19,21,26,28,29,,,1.6,1.2,1.1*36
$GPGSV,3,1,10,08,19,069,40,09,27,256,,10,16,182,,17,11,118,36*7A
$GPGSV,3,2,10,18,25,312,34,19,02,009,37,21,06,278,37,26,88,215,49*74
$GPGSV,3,3,10,28,49,069,47,29,77,134,47,,,,,,,,*7D
$GPRMC,180448,A,5203.2276,N,00116.3296,E,000.0,000.0,080507,002.7,W*67
$GPGGA,180448,5203.2276,N,00116.3296,E,1,07,1.2,30.4,M,46.9,M,,*76
$GPGSA,A,3,08,,,17,,19,21,26,28,29,,,1.6,1.2,1.1*36
$GPGSV,3,1,10,08,19,069,40,09,27,256,,10,16,182,,17,11,118,37*7B
$GPGSV,3,2,10,18,25,312,34,19,02,009,37,21,06,278,37,26,88,215,49*74
$GPGSV,3,3,10,28,49,069,47,29,77,134,47,,,,,,,,*7D
$GPRMC,180449,A,5203.2276,N,00116.3296,E,000.0,000.0,080507,002.7,W*66
$GPGGA,180449,5203.2276,N,00116.3296,E,1,07,1.2,30.4,M,46.9,M,,*77
$GPGSA,A,3,08,,,17,,19,21,26,28,29,,,1.6,1.2,1.1*36
$GPGSV,3,1,10,08,19,069,40,09,27,256,,10,16,182,,17,11,118,37*7B
$GPGSV,3,2,10,18,25,312,34,19,02,009,37,21,06,278,37,26,88,215,49*74
$GPGSV,3,3,10,28,49,069,47,29,77,134,47,,,,,,,,*7D
$GPRMC,180450,A,5203.2277,N,00116.3296,E,000.0,000.0,080507,002.7,W*6F
$GPGGA,180450,5203.2277,N,00116.3296,E,1,07,1.2,30.5,M,46.9,M,,*7F
$GPGSA,A,3,08,,,17,,19,21,26,28,29,,,1.6,1.2,1.1*36
$GPGSV,3,1,10,08,19,069,40,09,27,256,,10,16,182,,17,11,118,37*7B
$GPGSV,3,2,10,18,25,312,34,19,01,008,37,21,06,278,37,26,88,215,49*76
$GPGSV,3,3,10,28,49,069,47,29,77,134,47,,,,,,,,*7D
$GPRMC,180451,A,5203.2277,N,00116.3297,E,000.0,000.0,080507,002.7,W*6F
$GPGGA,180451,5203.2277,N,00116.3297,E,1,07,1.2,30.6,M,46.9,M,,*7C
$GPGSA,A,3,08,,,17,,19,21,26,28,29,,,1.6,1.2,1.1*36
$GPGSV,3,1,10,08,19,069,40,09,27,256,,10,16,182,,17,11,118,37*7B
$GPGSV,3,2,10,18,25,312,34,19,01,008,37,21,06,278,37,26,88,215,49*76
$GPGSV,3,3,10,28,49,069,47,29,77,134,47,,,,,,,,*7D
$GPRMC,180452,A,5203.2277,N,00116.3297,E,000.0,000.0,080507,002.7,W*6C
$GPGGA,180452,5203.2277,N,00116.3297,E,1,07,1.2,30.6,M,46.9,M,,*7F
$GPGSA,A,3,08,,,17,,19,21,26,28,29,,,1.6,1.2,1.1*36
$GPGSV,3,1,10,08,19,069,40,09,27,256,,10,16,182,,17,11,118,37*7B
$GPGSV,3,2,10,18,25,312,34,19,01,008,37,21,06,278,37,26,88,215,49*76
$GPGSV,3,3,10,28,49,069,47,29,77,134,47,,,,,,,,*7D
$GPRMC,180453,A,5203.2277,N,00116.3297,E,000.0,000.0,080507,002.7,W*6D
$GPGGA,180453,5203.2277,N,00116.3297,E,1,07,1.2,30.8,M,46.9,M,,*70
$GPGSA,A,3,08,,,17,,19,21,26,28,29,,,1.6,1.2,1.1*36
$GPGSV,3,1,10,08,19,069,40,09,27,256,,10,16,182,,17,11,118,37*7B
$GPGSV,3,2,10,18,25,312,34,19,01,008,37,21,06,278,37,26,88,215,49*76
$GPGSV,3,3,10,28,49,069,47,29,77,134,47,,,,,,,,*7D
$GPRMC,180454,A,5203.2278,N,00116.3297,E,000.0,000.0,080507,002.7,W*65
$GPGGA,180454,5203.2278,N,00116.3297,E,1,07,1.2,30.9,M,46.9,M,,*79
$GPGSA,A,3,08,,,17,,19,21,26,28,29,,,1.6,1.2,1.1*36
$GPGSV,3,1,10,08,19,069,40,09,27,256,,10,16,182,,17,11,118,37*7B
$GPGSV,3,2,10,18,25,312,34,19,01,008,37,21,06,278,37,26,88,215,49*76
$GPGSV,3,3,10,28,49,069,47,29,77,134,47,,,,,,,,*7D
$GPRMC,180455,A,5203.2278,N,00116.3298,E,000.0,000.0,080507,002.7,W*6B
$GPGGA,180455,5203.2278,N,00116.3298,E,1,07,1.2,31.0,M,46.9,M,,*7F
$GPGSA,A,3,08,,,17,,19,21,26,28,29,,,1.6,1.2,1.1*36
$GPGSV,3,1,10,08,19,069,40,09,27,256,,10,16,182,,17,11,118,37*7B
$GPGSV,3,2,10,18,25,312,34,19,01,008,37,21,06,278,37,26,88,215,49*76
$GPGSV,3,3,10,28,49,069,47,29,77,134,47,,,,,,,,*7D
$GPRMC,180456,A,5203.2279,N,00116.3298,E,000.0,000.0,080507,002.7,W*69
$GPGGA,180456,5203.2279,N,00116.3298,E,1,07,1.2,31.1,M,46.9,M,,*7C
$GPGSA,A,3,08,,,17,,19,21,26,28,29,,,1.6,1.2,1.1*36
$GPGSV,3,1,10,08,19,069,40,09,27,256,,10,16,182,,17,11,118,37*7B
$GPGSV,3,2,10,18,25,312,35,19,01,008,37,21,06,278,37,26,88,215,49*77
$GPGSV,3,3,10,28,49,069,47,29,77,134,47,,,,,,,,*7D
$GPRMC,180457,A,5203.2279,N,00116.3298,E,000.0,000.0,080507,002.7,W*68
$GPGGA,180457,5203.2279,N,00116.3298,E,1,07,1.2,31.3,M,46.9,M,,*7F
$GPGSA,A,3,08,,,17,,19,21,26,28,29,,,1.6,1.2,1.1*36
$GPGSV,3,1,10,08,19,069,40,09,27,256,,10,16,182,,17,11,118,37*7B
$GPGSV,3,2,10,18,25,312,35,19,01,008,37,21,06,278,37,26,88,215,49*77
$GPGSV,3,3,10,28,49,069,47,29,77,134,47,,,,,,,,*7D
$GPRMC,180458,A,5203.2279,N,00116.3299,E,000.0,000.0,080507,002.7,W*66
$GPGGA,180458,5203.2279,N,00116.3299,E,1,07,1.2,31.3,M,46.9,M,,*71
$GPGSA,A,3,08,,,17,,19,21,26,28,29,,,1.6,1.2,1.1*36
$GPGSV,3,1,10,08,19,069,40,09,27,256,,10,16,182,,17,11,118,37*7B
$GPGSV,3,2,10,18,25,312,35,19,01,008,37,21,05,278,37,26,88,215,49*74
$GPGSV,3,3,10,28,49,069,47,29,77,134,47,,,,,,,,*7D
$GPRMC,180459,A,5203.2279,N,00116.3299,E,000.0,000.0,080507,002.7,W*67
$GPGGA,180459,5203.2279,N,00116.3299,E,1,07,1.2,31.4,M,46.9,M,,*77
$GPGSA,A,3,08,,,17,,19,21,26,28,29,,,1.6,1.2,1.1*36
$GPGSV,3,1,10,08,19,069,40,09,27,256,,10,16,182,,17,11,118,37*7B
$GPGSV,3,2,10,18,25,312,35,19,01,008,37,21,05,278,37,26,88,215,49*74
$GPGSV,3,3,10,28,49,069,47,29,77,134,47,,,,,,,,*7D
$GPRMC,180500,A,5203.2280,N,00116.3299,E,000.0,000.0,080507,002.7,W*6C
$GPGGA,180500,5203.2280,N,00116.3299,E,1,07,1.2,31.5,M,46.9,M,,*7D
$GPGSA,A,3,08,,,17,,19,21,26,28,29,,,1.6,1.2,1.1*36
$GPGSV,3,1,10,08,19,069,40,09,27,256,,10,16,182,,17,11,118,37*7B
$GPGSV,3,2,10,18,25,312,35,19,01,008,37,21,05,278,37,26,88,215,49*74
$GPGSV,3,3,10,28,49,069,47,29,77,134,47,,,,,,,,*7D
$GPRMC,180501,A,5203.2280,N,00116.3300,E,000.0,000.0,080507,002.7,W*6C
$GPGGA,180501,5203.2280,N,00116.3300,E,1,07,1.2,31.6,M,46.9,M,,*7E
$GPGSA,A,3,08,,,17,,19,21,26,28,29,,,1.6,1.2,1.1*36
$GPGSV,3,1,10,08,19,069,40,09,27,256,,10,16,182,,17,11,118,37*7B
$GPGSV,3,2,10,18,25,312,35,19,01,008,37,21,05,278,37,26,88,215,49*74
$GPGSV,3,3,10,28,49,069,47,29,77,134,47,,,,,,,,*7D
$GPRMC,180502,A,5203.2281,N,00116.3300,E,000.0,000.0,080507,002.7,W*6E
$GPGGA,180502,5203.2281,N,00116.3300,E,1,07,1.2,31.6,M,46.9,M,,*7C
$GPGSA,A,3,08,,,17,,19,21,26,28,29,,,1.6,1.2,1.1*36
$GPGSV,3,1,10,08,19,069,40,09,27,256,,10,16,182,,17,11,118,37*7B
$GPGSV,3,2,10,18,25,312,35,19,01,008,38,21,05,278,37,26,88,215,49*7B
$GPGSV,3,3,10,28,49,069,47,29,77,134,47,,,,,,,,*7D
$GPRMC,180503,A,5203.2281,N,00116.3301,E,000.0,000.0,080507,002.7,W*6E
$GPGGA,180503,5203.2281,N,00116.3301,E,1,07,1.2,31.7,M,46.9,M,,*7D
$GPGSA,A,3,08,,,17,,19,21,26,28,29,,,1.6,1.2,1.1*36
$GPGSV,3,1,10,08,19,069,40,09,27,256,,10,16,182,,17,11,118,37*7B
$GPGSV,3,2,10,18,25,312,35,19,01,008,37,21,05,278,37,26,88,215,48*75
$GPGSV,3,3,10,28,49,069,47,29,77,134,47,,,,,,,,*7D
$GPRMC,180504,A,5203.2282,N,00116.3301,E,000.0,000.0,080507,002.7,W*6A
$GPGGA,180504,5203.2282,N,00116.3301,E,1,07,1.2,31.7,M,46.9,M,,*79
$GPGSA,A,3,08,,,17,,19,21,26,28,29,,,1.6,1.2,1.1*36
$GPGSV,3,1,10,08,19,069,40,09,27,256,,10,16,182,,17,11,118,37*7B
$GPGSV,3,2,10,18,25,312,35,19,01,008,38,21,05,278,37,26,88,215,48*7A
$GPGSV,3,3,10,28,49,069,47,29,77,134,47,,,,,,,,*7D
$GPRMC,180505,A,5203.2282,N,00116.3301,E,000.0,000.0,080507,002.7,W*6B
$GPGGA,180505,5203.2282,N,00116.3301,E,1,07,1.2,31.8,M,46.9,M,,*77
$GPGSA,A,3,08,,,17,,19,21,26,28,29,,,1.6,1.2,1.1*36
$GPGSV,3,1,10,08,19,069,40,09,27,256,,10,16,182,,17,11,118,37*7B
$GPGSV,3,2,10,18,25,312,35,19,01,008,38,21,05,278,37,26,88,215,48*7A
$GPGSV,3,3,10,28,49,069,47,29,77,134,47,,,,,,,,*7D
$GPRMC,180506,A,5203.2282,N,00116.3302,E,000.0,000.0,080507,002.7,W*6B
$GPGGA,180506,5203.2282,N,00116.3302,E,1,07,1.2,31.8,M,46.9,M,,*77
$GPGSA,A,3,08,,,17,,19,21,26,28,29,,,1.6,1.2,1.1*36
$GPGSV,3,1,10,08,19,069,40,09,27,256,,10,16,182,,17,11,118,37*7B
$GPGSV,3,2,10,18,25,312,36,19,01,008,38,21,05,278,37,26,88,215,48*79
$GPGSV,3,3,10,28,49,069,47,29,77,134,47,,,,,,,,*7D
$GPRMC,180507,A,5203.2283,N,00116.3301,E,000.0,000.0,080507,002.7,W*68
$GPGGA,180507,5203.2283,N,00116.3301,E,1,07,1.3,31.9,M,46.9,M,,*74
$GPGSA,A,3,08,,,17,,19,21,26,28,29,,,1.7,1.3,1.2*35
$GPGSV,3,1,10,08,19,069,40,09,27,256,,10,16,182,,17,11,118,36*7A
$GPGSV,3,2,10,18,25,312,36,19,01,008,38,21,05,278,37,26,88,215,48*79
$GPGSV,3,3,10,28,49,069,47,29,77,134,47,,,,,,,,*7D
$GPRMC,180508,A,5203.2283,N,00116.3302,E,000.0,000.0,080507,002.7,W*64
$GPGGA,180508,5203.2283,N,00116.3302,E,1,07,1.2,31.9,M,46.9,M,,*79
$GPGSA,A,3,08,,,17,,19,21,26,28,29,,,1.6,1.2,1.1*36
$GPGSV,3,1,10,08,19,069,40,09,27,256,,10,16,182,,17,11,118,36*7A
$GPGSV,3,2,10,18,25,312,36,19,01,008,38,21,05,278,37,26,88,215,48*79
$GPGSV,3,3,10,28,49,069,46,29,77,134,47,,,,,,,,*7C
$GPRMC,180509,A,5203.2283,N,00116.3302,E,000.0,000.0,080507,002.7,W*65
$GPGGA,180509,5203.2283,N,00116.3302,E,1,07,1.2,31.9,M,46.9,M,,*78
$GPGSA,A,3,08,,,17,,19,21,26,28,29,,,1.7,1.2,1.1*37
$GPGSV,3,1,10,08,19,069,40,09,27,256,,10,16,182,,17,11,118,36*7A
$GPGSV,3,2,10,18,25,312,36,19,01,008,38,21,05,278,37,26,88,215,48*79
$GPGSV,3,3,10,28,49,069,46,29,77,134,47,,,,,,,,*7C
$GPRMC,180510,A,5203.2283,N,00116.3302,E,000.0,000.0,080507,002.7,W*6D
$GPGGA,180510,5203.2283,N,00116.3302,E,1,07,1.2,31.9,M,46.9,M,,*70
$GPGSA,A,3,08,,,17,,19,21,26,28,29,,,1.6,1.2,1.1*36
$GPGSV,3,1,10,08,19,069,40,09,27,256,,10,16,182,,17,11,118,36*7A
$GPGSV,3,2,10,18,25,312,36,19,01,008,38,21,05,278,37,26,88,215,48*79
$GPGSV,3,3,10,28,49,069,46,29,77,134,47,,,,,,,,*7C
$GPRMC,180511,A,5203.2283,N,00116.3302,E,000.0,000.0,080507,002.7,W*6C
$GPGGA,180511,5203.2283,N,00116.3302,E,1,07,1.2,31.9,M,46.9,M,,*71
$GPGSA,A,3,08,,,17,,19,21,26,28,29,,,1.6,1.2,1.1*36
$GPGSV,3,1,10,08,19,069,40,09,27,256,,10,16,182,,17,11,118,36*7A
$GPGSV,3,2,10,18,25,312,36,19,01,008,38,21,05,278,37,26,88,215,48*79
$GPGSV,3,3,10,28,49,069,46,29,77,134,47,,,,,,,,*7C
$GPRMC,180512,A,5203.2283,N,00116.3303,E,000.0,000.0,080507,002.7,W*6E
$GPGGA,180512,5203.2283,N,00116.3303,E,1,07,1.2,31.9,M,46.9,M,,*73
$GPGSA,A,3,08,,,17,,19,21,26,28,29,,,1.6,1.2,1.1*36
